,id_mutation,date_mutation,numero_disposition,nature_mutation,valeur_fonciere,adresse_numero,adresse_nom_voie,adresse_code_voie,code_postal,code_commune,nom_commune,code_departement,id_parcelle,lot1_numero,nombre_lots,code_type_local,type_local,surface_reelle_bati,nombre_pieces_principales,code_nature_culture,nature_culture,surface_terrain,longitude,latitude
907766,2020-379773,2020-05-28,1,Vente,293500.0,2.0,PL DU MARENSIN,0575,40530.0,40133,Labenne,40,40133000AL0297,10.0,1,2.0,Appartement,87.0,5.0,J,jardins,100.0,-1.42534,43.592669
487178,2020-195097,2020-07-31,1,Vente,31000.0,7.0,RUE DES CITES CHAMPART,0470,25110.0,25047,Baume-les-Dames,25,25047000AN0251,4.0,1,2.0,Appartement,55.0,2.0,J,jardins,238.0,6.363504,47.341553
2213878,2020-941597,2020-03-06,1,Vente,370000.0,14.0,RUE DE NORMANDIE,1680,91140.0,91661,Villebon-sur-Yvette,91,91661000AB0552,2.0,1,1.0,Maison,88.0,7.0,S,sols,87.0,2.211542,48.700461
1270825,2020-526050,2020-05-22,1,Vente,152800.0,66.0,RUE ALAIN FOURNIER,0065,53000.0,53130,Laval,53,53130000CM0933,54.0,1,1.0,Maison,71.0,4.0,S,sols,431.0,-0.788507,48.07283
669327,2020-274929,2020-12-28,2,Vente,1000000.0,79.0,RUE ABBE DE L EPEE,0015,33000.0,33063,Bordeaux,33,33063000KX0125,2.0,1,2.0,Appartement,27.0,2.0,S,sols,16.0,-0.583085,44.842165
271767,2020-119235,2020-01-27,1,Vente,254590.0,10.0,RUE DE MANDON MOULES,2877,13200.0,13004,Arles,13,13004000HW0326,1.0,1,1.0,Maison,99.0,5.0,S,sols,315.0,4.745392,43.655948
110783,2020-48831,2020-06-08,1,Vente,300000.0,401.0,CHE DU CAYRE,0013,6340.0,6031,Cantaron,6,060310000A1360,1,1,2.0,Appartement,110.0,3.0,S,sols,292.0,7.302467,43.75853
1572389,2020-659265,2020-01-22,1,Vente,91725.0,14.0,RUE DU COLONEL GLOXIN,1000,64000.0,64445,Pau,64,64445000CD0105,1.0,1,2.0,Appartement,47.0,2.0,S,sols,25.0,-0.379446,43.291627
1719202,2020-723216,2020-04-21,1,Vente,170000.0,4.0,RUE SAINT JEAN,0385,72300.0,72061,La Chapelle-d'Aligné,72,72061000AB0450,2.0,1,1.0,Maison,152.0,4.0,S,sols,85.0,-0.235815,47.732337
282158,2020-123720,2020-07-11,1,Vente,215000.0,23.0,RUE DE CAUMONT,0260,14510.0,14338,Houlgate,14,14338000AB0058,1.0,1,1.0,Maison,59.0,4.0,S,sols,115.0,-0.083075,49.298272
2314064,2020-993434,2020-02-24,1,Vente,255000.0,50.0,RUE NOEL,6630,94600.0,94022,Choisy-le-Roi,94,94022000AS0038,1.0,1,2.0,Appartement,45.0,3.0,S,sols,70.0,2.423048,48.766596
861241,2020-358978,2020-10-16,1,Vente,74000.0,53.0,RUE VICTOR HUGO,1330,37600.0,37132,Loches,37,37132000AT0227,1.0,1,1.0,Maison,81.0,3.0,S,sols,225.0,0.99729,47.132068
1813538,2020-766805,2020-10-20,1,Vente,241000.0,4.0,RUE DES TILLEULS,0640,77930.0,77069,Chailly-en-Bière,77,77069000AM0172,9.0,1,1.0,Maison,116.0,5.0,S,sols,243.0,2.605778,48.466231
95260,2020-40797,2020-12-15,1,Vente,323950.0,996.0,RTE DE LEVENS,0037,6690.0,6147,Tourrette-Levens,6,061470000A0429,1,1,1.0,Maison,90.0,5.0,S,sols,49.0,7.267358,43.807151
607080,2020-247809,2020-05-13,1,Vente,211000.0,34.0,RUE DU PRINTEMPS,7140,31000.0,31555,Toulouse,31,31555823AB0176,4.0,1,2.0,Appartement,30.0,2.0,S,sols,48.0,1.444685,43.614251
2317533,2020-995453,2020-07-09,1,Vente,297000.0,36.0,RUE DENIS PAPIN,2525,94200.0,94041,Ivry-sur-Seine,94,94041000AP0039,8.0,1,2.0,Appartement,53.0,2.0,S,sols,150.0,2.394382,48.813533
2328910,2020-1001511,2020-08-03,1,Vente,351000.0,4.0,ALL BOSSUET,0084,94430.0,94019,Chennevières-sur-Marne,94,94019000AX0049,4.0,1,1.0,Maison,98.0,4.0,S,sols,204.0,2.530122,48.78797
1818466,2020-768905,2020-12-07,1,Vente,136250.0,1.0,RUE GALILEE,0373,77380.0,77122,Combs-la-Ville,77,77122000AK0293,187.0,1,1.0,Maison,100.0,6.0,S,sols,254.0,2.573663,48.653454
912256,2020-381568,2020-07-10,1,Vente,174400.0,1.0,RUE DU SPORTING,0333,40510.0,40296,Seignosse,40,40296000AT0081,3.0,1,2.0,Appartement,36.0,3.0,S,sols,28.0,-1.43537,43.699989
1645370,2020-694328,2020-05-19,1,Vente,289000.0,1.0,RUE DU COLIBRI,0044,69290.0,69094,Grézieu-la-Varenne,69,690940000A1877,29,1,2.0,Appartement,75.0,3.0,AG,terrains d'agrément,196.0,4.695419,45.7478
138820,2020-61586,2020-03-09,1,Vente,490000.0,12.0,IMP DES PALOMBIERES,2385,6800.0,6027,Cagnes-sur-Mer,6,06027000AZ0050,2.0,1,2.0,Appartement,75.0,2.0,S,sols,762.0,7.167591,43.664749
598856,2020-244537,2020-07-15,1,Vente,242500.0,148.0,RUE GRAND RUE,0160,30270.0,30269,Saint-Jean-du-Gard,30,30269000AB0077,22.0,1,2.0,Appartement,51.0,2.0,S,sols,146.0,3.882938,44.106924
2340057,2020-1007197,2020-09-17,1,Vente,404000.0,11.0,VLA DU BEL AIR,0702,94500.0,94017,Champigny-sur-Marne,94,94017000AN0170,3.0,1,1.0,Maison,72.0,4.0,S,sols,48.0,2.489647,48.814269
2010831,2020-856904,2020-07-29,1,Vente,212850.0,75.0,ALL DES ROSES,0469,84130.0,84092,Le Pontet,84,84092000AB0001,1004.0,1,1.0,Maison,108.0,5.0,S,sols,415.0,4.878826,43.963023
1304409,2020-539816,2020-06-08,1,Vente,500000.0,45.0,RUE DE L YRON,0840,54800.0,54273,Jarny,54,54273000AC0295,1.0,1,2.0,Appartement,41.0,2.0,S,sols,561.0,5.864268,49.164642
2216575,2020-943037,2020-09-26,1,Vente,255000.0,41.0,DOM DE VILLEJUST,A100,91140.0,91666,Villejust,91,91666000AA0264,5.0,1,1.0,Maison,50.0,3.0,S,sols,118.0,2.237531,48.682533
1638159,2020-691104,2020-09-03,2,Vente,823200.0,62.0,CHE DU TAFFIGNON,1040,69110.0,69202,Sainte-Foy-lès-Lyon,69,69202000AX0004,2.0,1,4.0,Local industriel. commercial ou assimilé,27.0,0.0,J,jardins,740.0,4.777456,45.727394
1993936,2020-847863,2020-09-28,1,Vente,555000.0,146.0,RUE AMIRAL DE GRASSE,0015,83220.0,83098,Le Pradet,83,83098000BB0077,2.0,1,1.0,Maison,160.0,6.0,S,sols,767.0,6.026643,43.091479
135497,2020-60150,2020-06-29,1,Vente,597980.0,2470.0,RTE METROPOLITAINE 18,0003,6640.0,6122,Saint-Jeannet,6,06122000AP0178,1.0,1,2.0,Appartement,91.0,3.0,AG,terrains d'agrément,958.0,7.147722,43.739683
279636,2020-122517,2020-01-21,1,Vente,770000.0,52.0,AV F DE KERGORLAY,0210,14800.0,14220,Deauville,14,14220000AC0512,216.0,1,2.0,Appartement,68.0,3.0,AG,terrains d'agrément,170.0,0.069387,49.351374
625265,2020-256662,2020-05-14,1,Vente,225800.0,31.0,IMP VERCORS,1773,31600.0,31395,Muret,31,31395000IC0184,1.0,1,1.0,Maison,88.0,4.0,S,sols,325.0,1.315435,43.455172
494847,2020-198889,2020-04-28,1,Vente,200000.0,9.0,CLOS DES VIGNERONS,A020,26600.0,26347,Tain-l'Hermitage,26,263470000E0634,25.0,1,1.0,Maison,101.0,5.0,S,sols,489.0,4.850041,45.069167
918983,2020-384194,2020-09-25,1,Vente,495000.0,27.0,RUE DOUBERT,1361,40130.0,40065,Capbreton,40,40065000AP0091,2,1,1.0,Maison,65.0,4.0,S,sols,483.0,-1.433722,43.649528
925391,2020-386880,2020-11-30,1,Vente,346770.0,51.0,AV DE LA MARQUEZE,0245,40510.0,40296,Seignosse,40,40296000BE0048,4,1,1.0,Maison,47.0,2.0,J,jardins,81.0,-1.424407,43.709962
1846238,2020-780953,2020-08-21,1,Vente,392750.0,44.0,RUE DES LAMBUIS,0540,77400.0,77155,Dampmart,77,77155000AE0087,2.0,1,1.0,Maison,127.0,7.0,J,jardins,527.0,2.746723,48.887397
321357,2020-137326,2020-04-29,1,Vente,188600.0,5.0,RUE HENRY BORDEAUX,4050,17000.0,17300,La Rochelle,17,17300000BR0001,79,1,1.0,Maison,91.0,6.0,S,sols,374.0,-1.189422,46.169637
1813625,2020-766848,2020-10-19,1,Vente,285000.0,8.0,ALL RACINE,1330,77220.0,77215,Gretz-Armainvilliers,77,772150000D1628,53.0,1,1.0,Maison,102.0,5.0,S,sols,352.0,2.729141,48.743067
1882480,2020-798344,2020-12-09,1,Vente,682776.0,6.0,ALL DES MESANGES,1507,78600.0,78358,Maisons-Laffitte,78,78358000AW0014,7.0,1,1.0,Maison,90.0,4.0,S,sols,220.0,2.129618,48.944375
1646104,2020-694644,2020-06-30,1,Vente,348000.0,11.0,AV DE LA POTERIE,0360,69890.0,69250,La Tour-de-Salvagny,69,69250000AD0100,48,1,2.0,Appartement,75.0,3.0,AG,terrains d'agrément,99.0,4.716653,45.815774
763867,2020-316579,2020-06-26,1,Vente,105000.0,4.0,IMP MARIE CELESTE,1441,34300.0,34003,Agde,34,34003000MW0009,101.0,1,2.0,Appartement,30.0,2.0,AG,terrains d'agrément,18.0,3.492704,43.277526
2002987,2020-852932,2020-08-18,1,Vente,520000.0,3351.0,ANCIEN CHEM DE TOULON,1219,83110.0,83123,Sanary-sur-Mer,83,83123000AM0679,2.0,1,1.0,Maison,90.0,4.0,S,sols,928.0,5.787018,43.135825
108694,2020-47929,2020-01-08,1,Vente,292000.0,996.0,RTE DE LEVENS,0037,6690.0,6147,Tourrette-Levens,6,061470000A0429,4,1,1.0,Maison,140.0,5.0,S,sols,335.0,7.267358,43.807151
1797456,2020-759809,2020-03-02,1,Vente,215000.0,6.0,RUE DE LA ROCHETTE,1490,77000.0,77288,Melun,77,77288000AZ0301,2.0,1,2.0,Appartement,90.0,3.0,AG,terrains d'agrément,191.0,2.656872,48.53234
1473699,2020-618558,2020-01-28,1,Vente,50000.0,16.0,RUE LOUIS BLANC,0470,60160.0,60414,Montataire,60,60414000AV0171,29.0,1,4.0,Local industriel. commercial ou assimilé,51.0,0.0,AB,terrains a bâtir,15.0,2.447326,49.255834
131987,2020-58790,2020-09-28,1,Vente,587500.0,95.0,VCHE VIEUX CHEMIN  SAINTE ANNE,4621,6130.0,6069,Grasse,6,06069000HK0473,1.0,1,1.0,Maison,168.0,4.0,AG,terrains d'agrément,1316.0,6.899154,43.642305
1137546,2020-474937,2020-06-12,1,Vente,182000.0,6.0,RUE ALBAN MARIE,0024,47300.0,47323,Villeneuve-sur-Lot,47,47323000ET0303,3.0,1,1.0,Maison,50.0,3.0,S,sols,176.0,0.714536,44.407445
281945,2020-123633,2020-06-25,1,Vente,126000.0,8.0,RUE DE NORMANDIE,0560,14160.0,14225,Dives-sur-Mer,14,14225000AH0173,4.0,1,1.0,Maison,64.0,3.0,S,sols,225.0,-0.107493,49.283055
110198,2020-48594,2020-04-02,1,Vente,335000.0,5262.0,SERRE DE NAIRAUD,B117,6470.0,6016,Beuil,6,060160000H0630,3,1,1.0,Maison,100.0,5.0,P,prés,155.0,6.962312,44.08871
1617518,2020-680647,2020-10-26,1,Vente,331550.0,183.0,RTE DES PROLIERES,0460,69270.0,69033,Cailloux-sur-Fontaines,69,69033000AE0761,3,1,1.0,Maison,86.0,4.0,S,sols,131.0,4.870025,45.851659
324293,2020-139064,2020-08-24,1,Vente,250000.0,25.0,AV GENERAL LECLERC,3640,17000.0,17300,La Rochelle,17,17300000AP0092,7,1,2.0,Appartement,69.0,3.0,S,sols,130.0,-1.161747,46.162611
151851,2020-66276,2020-10-08,1,Vente,75000.0,19.0,AV DE SIERRE,6560,7200.0,7019,Aubenas,7,070190000E4090,2.0,1,1.0,Maison,80.0,4.0,S,sols,116.0,4.377549,44.621814
1984134,2020-842217,2020-06-12,1,Vente,210000.0,540.0,RUE DU DOCTEUR DONNADIEU,0725,83600.0,83061,Fréjus,83,83061000AX0202,106.0,1,1.0,Maison,73.0,3.0,S,sols,117.0,6.754587,43.435938
2005815,2020-854442,2020-11-05,1,Vente,495000.0,287.0,CHE DE LA CAPUCINE,0038,83330.0,83016,Le Beausset,83,830160000C1052,1.0,1,1.0,Maison,98.0,5.0,AG,terrains d'agrément,705.0,5.83505,43.187195
2338906,2020-1006588,2020-08-06,1,Vente,390750.0,14.0,RUE DE LA PREVOYANCE,7361,94500.0,94017,Champigny-sur-Marne,94,94017000AJ0085,1.0,1,1.0,Maison,76.0,3.0,S,sols,150.0,2.492863,48.816446
820339,2020-342119,2020-07-07,1,Vente,100000.0,5874.0,RUE DE LA ROIRIE,0065,35610.0,35222,Pleine-Fougères,35,35222000AC0213,2.0,1,4.0,Local industriel. commercial ou assimilé,1188.0,0.0,S,sols,1086.0,-1.560006,48.532167
503759,2020-203066,2020-11-25,1,Vente,235000.0,40.0,ALL ROGER MAISONNY,8911,26000.0,26362,Valence,26,26362000BR0008,2.0,1,1.0,Maison,101.0,4.0,S,sols,213.0,4.915939,44.913437
769209,2020-319231,2020-12-28,1,Vente,164180.0,1.0,RUE DU LABECH,1331,34300.0,34003,Agde,34,34003000NY0035,42.0,1,1.0,Maison,20.0,1.0,AG,terrains d'agrément,38.0,3.503334,43.286768
106247,2020-46627,2020-05-25,1,Vente,500000.0,884.0,RTE DU SANATORIUM,0353,6500.0,6067,Gorbio,6,060670000C0398,101,1,1.0,Maison,150.0,4.0,S,sols,45.0,7.472048,43.780724
2277138,2020-974385,2020-11-18,1,Vente,435000.0,9.0,RUE DE LA TREFILERIE,9160,93120.0,93027,La Courneuve,93,93027000AQ0032,8.0,1,2.0,Appartement,69.0,4.0,S,sols,2.0,2.407926,48.923854
1840043,2020-777955,2020-05-14,1,Vente,265000.0,4.0,CHE DE DAMPLEGER,0060,77470.0,77369,Poincy,77,773690000C0698,1.0,1,1.0,Maison,89.0,5.0,J,jardins,150.0,2.930358,48.968463
1651872,2020-697099,2020-12-10,1,Vente,205000.0,66.0,IMP JEAN COLOMB,0091,69280.0,69127,Marcy-l'Étoile,69,69127000AP0105,13,1,4.0,Local industriel. commercial ou assimilé,81.0,0.0,AG,terrains d'agrément,64.0,4.707758,45.781928
2329239,2020-1001705,2020-09-15,1,Vente,330000.0,5.0,RUE DES COUTELIERS,0044,94440.0,94048,Marolles-en-Brie,94,94048000AP0129,7.0,1,1.0,Maison,90.0,5.0,S,sols,235.0,2.551828,48.736499
875901,2020-366649,2020-05-05,1,Vente,425000.0,15.0,RUE DU SER PALOR,0062,38860.0,38253,Les Deux Alpes,38,38253534AB0377,6.0,1,1.0,Maison,78.0,3.0,S,sols,182.0,6.123567,45.003339
576033,2020-235160,2020-10-23,1,Vente,159000.0,8.0,RUE DES GENETS,3665,30900.0,30189,Nîmes,30,30189000KW0214,4.0,1,1.0,Maison,82.0,4.0,S,sols,253.0,4.320615,43.82799
1818684,2020-769002,2020-12-09,1,Vente,60000.0,176.0,LA MUSSINE,B073,77820.0,77100,Le Châtelet-en-Brie,77,771000000G0654,176.0,1,1.0,Maison,30.0,1.0,S,sols,254.0,2.783736,48.494788
219328,2020-92115,2020-09-07,1,Vente,195000.0,2003.0,MATEILLE,B060,11430.0,11170,Gruissan,11,11170000BM0011,428,1,2.0,Appartement,61.0,2.0,S,sols,3060.0,3.144774,43.136078
2339786,2020-1007026,2020-09-16,1,Vente,366000.0,195.0,AV LUCIEN BARRAULT,5275,94500.0,94017,Champigny-sur-Marne,94,94017000DV0169,2.0,1,1.0,Maison,86.0,4.0,S,sols,262.0,2.549502,48.813765
217388,2020-91043,2020-06-29,1,Vente,10000.0,1.0,CPG CLUB LE PAVILLON,A002,11130.0,11379,Sigean,11,11379000AW0141,288,1,4.0,Local industriel. commercial ou assimilé,76.0,0.0,S,sols,740.0,3.00356,43.030425
1690863,2020-711654,2020-10-12,1,Vente,50000.0,8.0,RUE DU VILET,4740,71200.0,71153,Le Creusot,71,71153000BI0211,12.0,1,1.0,Maison,80.0,5.0,J,jardins,189.0,4.426611,46.790993
2330450,2020-1002377,2020-10-02,1,Vente,400000.0,4.0,ALL DES EGLANTINES,0144,94520.0,94047,Mandres-les-Roses,94,94047000AN0040,3.0,1,1.0,Maison,160.0,6.0,S,sols,498.0,2.537225,48.703005
228789,2020-97096,2020-07-16,1,Vente,125000.0,7.0,RUE JUMELLES,4979,13016.0,13216,Marseille 16e Arrondissement,13,132169080L0199,1,1,2.0,Appartement,31.0,2.0,S,sols,39.0,5.313802,43.361587
1852045,2020-783786,2020-10-27,1,Vente,330000.0,9.0,ALL DES AIGRETTES,0005,77183.0,77146,Croissy-Beaubourg,77,77146000AB0020,39,1,1.0,Maison,88.0,5.0,S,sols,188.0,2.653579,48.82107
702656,2020-290053,2020-10-24,1,Vente,163000.0,150.0,BD DE LA PLAGE,1850,33120.0,33009,Arcachon,33,33009000AL0152,2.0,1,2.0,Appartement,28.0,2.0,S,sols,11.0,-1.158422,44.661679
2190148,2020-929741,2020-12-30,1,Vente,285000.0,56.0,RUE JEAN MERMOZ,2110,91230.0,91421,Montgeron,91,91421000AX0186,1.0,1,2.0,Appartement,76.0,4.0,S,sols,270.0,2.439661,48.709056
266223,2020-116914,2020-05-14,1,Vente,254100.0,16.0,RUE DES AIGUILLETTES,0041,13800.0,13047,Istres,13,13047000CP0260,37.0,1,1.0,Maison,95.0,4.0,S,sols,271.0,4.980589,43.511331
2207771,2020-938805,2020-06-09,1,Vente,260000.0,1.0,RUE PASTEUR,0543,91580.0,91226,Étréchy,91,91226000AC0532,1.0,1,1.0,Maison,85.0,3.0,S,sols,372.0,2.193884,48.494334
769589,2020-319433,2020-08-28,1,Vente,87000.0,9.0,CHE DU SUCRE,2165,34300.0,34003,Agde,34,34003000MC0110,12.0,1,2.0,Appartement,21.0,1.0,AG,terrains d'agrément,22.0,3.456626,43.285036
183478,2020-76766,2020-12-11,1,Vente,84550.0,106.0,CAZALERES,B013,9350.0,9105,Daumazan-sur-Arize,9,091050000B2066,134.0,1,1.0,Maison,78.0,4.0,S,sols,225.0,1.309987,43.133404
1704698,2020-717391,2020-09-23,1,Vente,166761.5,5046.0,LA ROBINETTERIE,B270,72170.0,72194,Meurcé,72,72194000ZE0017,1.0,1,1.0,Maison,92.0,6.0,S,sols,3640.0,0.204889,48.248123
1637564,2020-690847,2020-08-06,1,Vente,295000.0,12.0,RUE GUILLAUME APOLLINAIRE,0123,69310.0,69152,Pierre-Bénite,69,69152000AK0209,11.0,1,1.0,Maison,76.0,4.0,S,sols,181.0,4.831831,45.700437
1813530,2020-766801,2020-10-09,1,Vente,155000.0,28.0,RUE DES GRANDS TAILLIS,0905,77140.0,77431,Saint-Pierre-lès-Nemours,77,77431000BA0043,176.0,1,1.0,Maison,78.0,4.0,S,sols,247.0,2.669475,48.276016
1772385,2020-747358,2020-03-12,1,Vente,247000.0,9015.0,RUE DES CANADIENS,0188,76260.0,76255,Eu,76,76255000AC0251,14.0,1,1.0,Maison,123.0,5.0,AG,terrains d'agrément,755.0,1.423546,50.040509
1280033,2020-529363,2020-11-05,1,Vente,85000.0,5187.0,LA THEBAUDIERE,C565,53160.0,53053,Champgenéteux,53,530530000B1070,11.0,1,1.0,Maison,110.0,6.0,S,sols,155.0,-0.393332,48.286933
1998199,2020-850341,2020-02-20,1,Vente,457500.0,74.0,IMP DES MAS DU SOLEIL,0333,83110.0,83123,Sanary-sur-Mer,83,83123000AL1089,1.0,1,1.0,Maison,103.0,4.0,S,sols,442.0,5.795251,43.12991
851028,2020-355332,2020-09-03,1,Vente,13000.0,1342.0,LES PRES LEROY,B050,37250.0,37154,Montbazon,37,371540000B0483,8.0,1,1.0,Maison,30.0,1.0,S,sols,27.0,0.722818,47.28248
866342,2020-361768,2020-08-28,1,Vente,328770.0,21.0,RUE DU BOIS MENTEL,0111,38400.0,38421,Saint-Martin-d'Hères,38,38421000AT0199,25.0,1,1.0,Maison,91.0,5.0,S,sols,430.0,5.766896,45.166881
115722,2020-51039,2020-02-25,1,Vente,630000.0,201.0,RTE DES CLAUSONNES,0260,6410.0,6018,Biot,6,06018000AI0094,1.0,1,1.0,Maison,135.0,5.0,S,sols,943.0,7.097148,43.622759
2242271,2020-956317,2020-09-15,1,Vente,1811100.0,14.0,RUE ARMENGAUD,0100,92210.0,92064,Saint-Cloud,92,92064000AE0007,7.0,1,1.0,Maison,174.0,5.0,AB,terrains a bâtir,252.0,2.217044,48.846987
748391,2020-308853,2020-06-12,1,Vente,175000.0,100.0,RUE DES AIGRETTES,0008,34400.0,34145,Lunel,34,34145000AL0195,7.0,1,1.0,Maison,84.0,5.0,S,sols,330.0,4.141605,43.670697
760552,2020-314867,2020-02-24,1,Vente,265700.0,4.0,RUE DES NEREIDES,1628,34300.0,34003,Agde,34,34003000IY0005,64.0,1,1.0,Maison,39.0,3.0,AG,terrains d'agrément,31.0,3.527603,43.295984
955627,2020-398245,2020-09-14,1,Vente,179100.0,11.0,ALL DES PEUPLIERS,0343,42350.0,42305,La Talaudière,42,42305000AV0001,73.0,1,1.0,Maison,86.0,5.0,S,sols,359.0,4.414424,45.471887
502502,2020-202506,2020-10-13,1,Vente,116000.0,4.0,CITE DU BELVEDERE,0043,26250.0,26165,Livron-sur-Drôme,26,26165000BE0329,4.0,1,1.0,Maison,73.0,4.0,S,sols,236.0,4.84331,44.771388
1635841,2020-690065,2020-05-26,1,Vente,368300.0,3.0,RUE DU PROGRES,0138,69390.0,69268,Vourles,69,69268000AL0239,1.0,1,1.0,Maison,91.0,3.0,S,sols,43.0,4.77861,45.658968
1646822,2020-694922,2020-07-07,1,Vente,398000.0,53.0,RUE CENTRALE,0180,69290.0,69069,Craponne,69,69069000BB0252,1,1,2.0,Appartement,118.0,5.0,AG,terrains d'agrément,217.0,4.714339,45.745589
135248,2020-60056,2020-06-02,1,Vente,489000.0,663.0,CHE DES BASSINS,0025,6530.0,6118,Saint-Cézaire-sur-Siagne,6,061180000A1544,1.0,1,1.0,Maison,127.0,5.0,S,sols,650.0,6.790801,43.672149
1649255,2020-695950,2020-09-28,1,Vente,447250.0,20.0,AV DE LAUTERBOURG,0520,69160.0,69244,Tassin-la-Demi-Lune,69,69244000AR0014,16,1,2.0,Appartement,98.0,4.0,AG,terrains d'agrément,8.0,4.778545,45.759718
741105,2020-304990,2020-01-03,1,Vente,320000.0,293.0,RUE DE VALENE,0162,34980.0,34255,Saint-Gély-du-Fesc,34,34255000AH0044,32.0,1,1.0,Maison,92.0,4.0,S,sols,445.0,3.80149,43.694366
1280917,2020-529645,2020-11-02,1,Vente,468000.0,3.0,LA GOUVENIERE,B091,53420.0,53048,Chailland,53,53048000BC0242,1.0,1,1.0,Maison,78.0,4.0,P,prés,5511.0,-0.897892,48.217087
1772384,2020-747358,2020-03-12,1,Vente,247000.0,9015.0,RUE DES CANADIENS,0188,76260.0,76255,Eu,76,76255000AC0251,14.0,1,1.0,Maison,123.0,5.0,S,sols,173.0,1.423546,50.040509
2329761,2020-1002002,2020-09-17,1,Vente,265000.0,7.0,RUE ROMAIN ROLLAND,0432,94460.0,94074,Valenton,94,94074000AE0139,91.0,1,1.0,Maison,72.0,4.0,S,sols,152.0,2.461853,48.746883
763523,2020-316404,2020-06-12,1,Vente,143200.0,3.0,RUE DES CORSAIRES,0604,34300.0,34003,Agde,34,34003000MW0036,270.0,1,2.0,Appartement,30.0,2.0,AG,terrains d'agrément,20.0,3.49446,43.276941
958631,2020-399615,2020-11-12,1,Vente,175000.0,25.0,RUE DU BEARN,0075,42800.0,42186,Rive-de-Gier,42,42186000BE0075,27.0,1,1.0,Maison,85.0,4.0,S,sols,248.0,4.597499,45.5176
231403,2020-98841,2020-02-14,1,Vente,760000.0,20.0,RUE PYTHAGORE,7648,13006.0,13206,Marseille 6e Arrondissement,13,132068280H0270,5,1,2.0,Appartement,110.0,4.0,S,sols,5.0,5.375867,43.282383
1985684,2020-842945,2020-05-28,1,Vente,456000.0,6030.0,LES TERRASSONNES,B064,83440.0,83138,Tourrettes,83,831380000F0777,1.0,1,1.0,Maison,114.0,4.0,S,sols,1038.0,6.727344,43.604167
283391,2020-124316,2020-09-12,1,Vente,299000.0,5208.0,LA BRIQUETERIE,B029,14510.0,14305,Gonneville-sur-Mer,14,143050000C0522,16.0,1,1.0,Maison,100.0,3.0,S,sols,1000.0,-0.012679,49.281306
1581801,2020-663524,2020-09-29,1,Vente,186000.0,18.0,RUE DE LA BIGORRE,0600,64000.0,64445,Pau,64,64445000DV0156,20.0,1,1.0,Maison,96.0,6.0,S,sols,669.0,-0.349818,43.323242
112191,2020-49412,2020-08-17,1,Vente,416660.0,310.0,CHE DU CANET,0007,6670.0,6034,Castagniers,6,060340000C1608,2,1,1.0,Maison,88.0,4.0,S,sols,500.0,7.232564,43.793829
1633378,2020-688910,2020-01-24,1,Vente,373000.0,50.0,RUE DU RAVE,0280,69390.0,69133,Millery,69,691330000B0280,2.0,1,1.0,Maison,108.0,6.0,S,sols,310.0,4.783532,45.635896
162296,2020-69853,2020-07-29,1,Vente,152400.0,10.0,RUE LEON BLUM,2150,8000.0,8105,Charleville-Mézières,8,08105000CE0485,10.0,1,2.0,Appartement,120.0,5.0,J,jardins,337.0,4.7077,49.762911
1266744,2020-524677,2020-03-03,2,Vente,429000.0,232.0,L HABIT,B101,53420.0,53048,Chailland,53,53048000AI0006,3.0,1,1.0,Maison,84.0,3.0,P,prés,161000.0,-0.834311,48.251585
2183501,2020-926229,2020-07-09,1,Vente,350000.0,30.0,RUE DE L'ESPERANCE,1440,91330.0,91691,Yerres,91,91691000AR0089,1.0,1,1.0,Maison,83.0,4.0,S,sols,404.0,2.48755,48.708339
2308273,2020-990344,2020-09-24,1,Vente,690000.0,88.0,AV DU GENERAL DE GAULLE,4128,94700.0,94046,Maisons-Alfort,94,94046000AV0010,202.0,1,2.0,Appartement,88.0,4.0,S,sols,40.0,2.427414,48.803891
1716733,2020-722227,2020-09-04,1,Vente,135000.0,41.0,BD DE LA BUTTE,0095,72230.0,72213,Mulsanne,72,72213000AC0057,8.0,1,1.0,Maison,93.0,5.0,S,sols,231.0,0.253222,47.918349
1338296,2020-554268,2020-05-19,1,Vente,193000.0,5353.0,COET FORN BRAS,B011,56850.0,56036,Caudan,56,56036000ZP0274,65,1,1.0,Maison,118.0,6.0,S,sols,898.0,-3.323614,47.801114
2289407,2020-980643,2020-04-14,1,Vente,496270.0,3.0,RTE DE GOURNAY,1080,93160.0,93051,Noisy-le-Grand,93,93051000AH0204,4.0,1,1.0,Maison,93.0,4.0,S,sols,337.0,2.565759,48.850434
261175,2020-114541,2020-08-25,1,Vente,337000.0,1.0,CHE DE LA BEDOULE,0264,13540.0,13001,Aix-en-Provence,13,13001000MT0337,1.0,1,1.0,Maison,80.0,4.0,T,terres,725.0,5.375542,43.581297
1856449,2020-785751,2020-12-29,1,Vente,336400.0,4.0,ALL DES EAUX BONNES,1255,77500.0,77108,Chelles,77,77108000AL0422,33,1,1.0,Maison,102.0,5.0,S,sols,203.0,2.623376,48.892564
1804129,2020-762855,2020-06-24,1,Vente,270000.0,58.0,BD ROMAIN ROLLAND,1370,77220.0,77215,Gretz-Armainvilliers,77,772150000D1629,49.0,1,1.0,Maison,74.0,4.0,S,sols,350.0,2.726408,48.744108
1819673,2020-769397,2020-12-18,1,Vente,286200.0,54.0,BD ROMAIN ROLLAND,1370,77220.0,77215,Gretz-Armainvilliers,77,772150000D1629,47.0,1,1.0,Maison,87.0,5.0,S,sols,735.0,2.726408,48.744108
1759018,2020-740716,2020-06-19,1,Vente,280000.0,71.0,RTE DES HERMONES,0120,74500.0,74057,Champanges,74,740570000B0665,6,1,1.0,Maison,107.0,5.0,S,sols,332.0,6.554048,46.367748
1479540,2020-621310,2020-09-23,1,Vente,228850.0,2.0,RUE DE GOURNAY,0320,60160.0,60414,Montataire,60,60414000AX0490,1.0,1,2.0,Appartement,114.0,5.0,AG,terrains d'agrément,65.0,2.450296,49.261394
2003702,2020-853281,2020-09-10,1,Vente,472000.0,2704.0,ANCIEN CHEM DE TOULON,1219,83110.0,83123,Sanary-sur-Mer,83,83123000AL2168,6.0,1,2.0,Appartement,40.0,2.0,S,sols,600.0,5.793011,43.13231
285084,2020-125120,2020-11-28,1,Vente,125400.0,9021.0,VC RES LE VILLAGE DE LA PLAGE,1930,14640.0,14754,Villers-sur-Mer,14,14754000AE0221,45.0,1,2.0,Appartement,24.0,2.0,AG,terrains d'agrément,42.0,0.010264,49.327866
867606,2020-362578,2020-12-23,1,Vente,272150.0,5.0,RUE EDMOND ROSTAND,0485,38320.0,38158,Eybens,38,38158000AM0102,3.0,1,1.0,Maison,76.0,5.0,S,sols,120.0,5.753157,45.156718
147110,2020-64767,2020-05-14,1,Vente,78000.0,59.0,GRAND CHAMPAGNE,B053,7220.0,7279,Saint-Montan,7,07279000AP0240,117.0,1,1.0,Maison,58.0,3.0,S,sols,84.0,4.666935,44.436791
1653358,2020-697748,2020-02-18,1,Vente,286200.0,3.0,CHE DE LA CREUZE,0035,69400.0,69115,Limas,69,69115000AE0033,26,1,2.0,Appartement,120.0,4.0,J,jardins,150.0,4.703224,45.974195
1779563,2020-751130,2020-11-07,1,Vente,280000.0,1.0,RUE DES FERMES,0380,76310.0,76552,Sainte-Adresse,76,76552000AB0342,37.0,1,2.0,Appartement,103.0,5.0,S,sols,62.0,0.078956,49.513721
612858,2020-250745,2020-12-22,1,Vente,375610.0,3.0,RUE DU PIC DE TANARGUE,0615,31240.0,31561,L'Union,31,31561000AX0001,24.0,1,1.0,Maison,133.0,6.0,S,sols,1006.0,1.492204,43.654206
1575306,2020-660521,2020-05-06,1,Vente,160000.0,1.0,ALL DU HARAS,0405,64110.0,64237,Gelos,64,64237000AE0181,1.0,1,1.0,Maison,89.0,5.0,S,sols,191.0,-0.362051,43.281628
1280028,2020-529363,2020-11-05,1,Vente,85000.0,5187.0,LA THEBAUDIERE,C565,53160.0,53053,Champgenéteux,53,530530000B1070,11.0,1,1.0,Maison,110.0,6.0,T,terres,3230.0,-0.393332,48.286933
281850,2020-123599,2020-06-19,1,Vente,125000.0,9029.0,CHEM DU BOIS,B028,14640.0,14754,Villers-sur-Mer,14,14754000AO0071,84.0,1,1.0,Maison,43.0,3.0,AG,terrains d'agrément,65.0,0.004406,49.314711
873324,2020-365555,2020-12-09,1,Vente,209000.0,11.0,RUE DU CHEVREFEUILLE,0054,38530.0,38314,Pontcharra,38,38314000AO0237,5.0,1,1.0,Maison,86.0,5.0,S,sols,113.0,6.01532,45.434952
2293412,2020-982611,2020-09-07,1,Vente,700000.0,16.0,ALL GAMBETTA,0440,93340.0,93062,Le Raincy,93,93062000AK0201,2.0,1,4.0,Local industriel. commercial ou assimilé,360.0,0.0,S,sols,877.0,2.509738,48.89525
912495,2020-381633,2020-07-10,1,Vente,346000.0,9001.0,RES LES DUNES,A071,40510.0,40296,Seignosse,40,40296000BL0012,214.0,1,2.0,Appartement,42.0,3.0,S,sols,125.0,-1.433891,43.695828
255351,2020-111771,2020-05-11,1,Vente,237000.0,133.0,RTE DEPARTEMENTALE 368,0760,13170.0,13071,Les Pennes-Mirabeau,13,13071000AZ0102,2.0,1,1.0,Maison,73.0,4.0,S,sols,402.0,5.345866,43.382151
1088222,2020-456867,2020-06-29,1,Vente,282000.0,30.0,RUE DE CAMBRAI,0193,45160.0,45232,Olivet,45,45232000BK0281,30.0,1,1.0,Maison,118.0,5.0,S,sols,500.0,1.904713,47.840221
2277140,2020-974385,2020-11-18,1,Vente,435000.0,9.0,RUE DE LA TREFILERIE,9160,93120.0,93027,La Courneuve,93,93027000AQ0032,9.0,1,2.0,Appartement,66.0,4.0,S,sols,24.0,2.407926,48.923854
870966,2020-364279,2020-04-27,1,Vente,359300.0,264.0,RUE DE LA BALME,0016,38950.0,38423,Saint-Martin-le-Vinoux,38,38423000AX0192,25.0,1,1.0,Maison,117.0,5.0,S,sols,485.0,5.702713,45.212096
1626546,2020-685542,2020-05-13,1,Vente,238000.0,26.0,IMP DE LA CHARENTE,0242,69330.0,69282,Meyzieu,69,69282000DH0376,18.0,1,2.0,Appartement,67.0,3.0,S,sols,37.0,5.005911,45.764438
283811,2020-124514,2020-10-01,1,Vente,85000.0,35.0,RUE DE LA CAVEE,0260,14360.0,14715,Trouville-sur-Mer,14,14715000AC0326,2.0,1,2.0,Appartement,16.0,1.0,S,sols,3.0,0.082854,49.367012
1856070,2020-785609,2020-12-15,1,Vente,185000.0,6.0,ALL ARTHEMIS,0103,77100.0,77284,Meaux,77,77284000AK0075,97,1,1.0,Maison,79.0,4.0,S,sols,167.0,2.906605,48.954907
2330103,2020-1002197,2020-10-13,1,Vente,360170.0,12.0,RUE ALFRED KASTLER,0006,94510.0,94060,La Queue-en-Brie,94,94060000AO0025,19.0,1,1.0,Maison,88.0,5.0,S,sols,361.0,2.583128,48.786396
2188523,2020-929001,2020-11-30,1,Vente,290800.0,13.0,VIL DES AMANDIERS,A030,91800.0,91097,Boussy-Saint-Antoine,91,91097000AO0017,13.0,1,1.0,Maison,74.0,4.0,S,sols,141.0,2.534054,48.693244
1798148,2020-760108,2020-03-04,1,Vente,90000.0,3.0,RUE VOLTAIRE,0240,77460.0,77458,Souppes-sur-Loing,77,77458000BE0254,35.0,1,4.0,Local industriel. commercial ou assimilé,183.0,0.0,S,sols,20.0,2.730643,48.182092
2019847,2020-860984,2020-11-09,1,Vente,144000.0,1007.0,CHE DU BEL ENFANT,0299,84100.0,84087,Orange,84,840870000O1079,2.0,1,2.0,Appartement,66.0,3.0,S,sols,27.0,4.802258,44.122016
1782052,2020-752365,2020-03-11,1,Vente,213000.0,13.0,RUE SAINT JUST,1182,76700.0,76341,Harfleur,76,76341000AI0903,12.0,1,2.0,Appartement,38.0,2.0,S,sols,26.0,0.200533,49.506709
1840044,2020-777955,2020-05-14,1,Vente,265000.0,4.0,CHE DE DAMPLEGER,0060,77470.0,77369,Poincy,77,773690000C0698,1.0,1,1.0,Maison,89.0,5.0,S,sols,500.0,2.930358,48.968463
2210562,2020-939967,2020-09-30,1,Vente,264500.0,69.0,RUE DES PROVENCHERES,0050,91820.0,91099,Boutigny-sur-Essonne,91,910990000A0584,105.0,1,1.0,Maison,96.0,4.0,S,sols,404.0,2.366169,48.439448
1635358,2020-689834,2020-05-11,1,Vente,314000.0,51.0,ALL DE LA CLAIRIERE,0141,69540.0,69100,Irigny,69,69100000AX0011,51.0,1,1.0,Maison,98.0,5.0,S,sols,255.0,4.819464,45.669645
1776847,2020-749718,2020-06-19,1,Vente,43000.0,50.0,RUE DE VERDUN,7845,76600.0,76351,Le Havre,76,76351000MB0037,7.0,1,1.0,Maison,40.0,3.0,S,sols,59.0,0.148939,49.50109
268592,2020-117707,2020-06-25,1,Vente,425000.0,9576.0,CHE DE LA BOULANGERE,0202,13500.0,13056,Martigues,13,13056000CR0576,1.0,1,1.0,Maison,100.0,5.0,S,sols,667.0,5.04565,43.335064
1900987,2020-807295,2020-08-26,1,Vente,250000.0,21.0,RTE DE MERICOURT,0300,78270.0,78528,Rolleboise,78,785280000A0120,2.0,1,1.0,Maison,125.0,4.0,BT,taillis simples,1217.0,1.611579,49.023649
219323,2020-92115,2020-09-07,1,Vente,195000.0,2003.0,MATEILLE,B060,11430.0,11170,Gruissan,11,11170000BM0011,428,1,4.0,Local industriel. commercial ou assimilé,119.0,0.0,S,sols,3060.0,3.144774,43.136078
760745,2020-314967,2020-02-21,1,Vente,128300.0,4.0,AV DE LA MEDITERRANEE,1463,34300.0,34003,Agde,34,34003000KL0035,162.0,1,2.0,Appartement,28.0,2.0,AG,terrains d'agrément,18.0,3.512977,43.292758
2209272,2020-939397,2020-08-12,1,Vente,246000.0,14.0,RUE REVERSELEUX,3560,91150.0,91223,Étampes,91,91223000BM0070,1.0,1,1.0,Maison,83.0,4.0,S,sols,301.0,2.145289,48.42358
1217151,2020-505004,2020-02-07,1,Vente,40000.0,2.0,RUE DU MARAIS,0039,50590.0,50349,Montmartin-sur-Mer,50,50349000AN0084,60,1,1.0,Maison,45.0,3.0,S,sols,200.0,-1.553586,48.979702
121002,2020-53460,2020-08-04,1,Vente,468800.0,190.0,CHE DE POURSEL,0230,6550.0,6108,La Roquette-sur-Siagne,6,06108000AR0087,10.0,1,1.0,Maison,90.0,4.0,S,sols,500.0,6.957668,43.574926
1849262,2020-782398,2020-09-17,1,Vente,371000.0,48.0,RUE LOUIS JACOLLIOT,1034,77400.0,77243,Lagny-sur-Marne,77,77243000BC0149,24.0,1,1.0,Maison,112.0,5.0,S,sols,263.0,2.713437,48.868649
102782,2020-44696,2020-07-24,1,Vente,758400.0,290.0,CHE DE SAQUIER,6104,6200.0,6088,Nice,6,06088000AS0110,3,1,2.0,Appartement,54.0,3.0,T,terres,1193.0,7.200942,43.735833
1986587,2020-843379,2020-12-08,1,Vente,249000.0,5365.0,LA GORGE DE LA TUILIERE,B020,83119.0,83025,Brue-Auriac,83,830250000H0601,1.0,1,1.0,Maison,82.0,4.0,AG,terrains d'agrément,700.0,5.934941,43.531581
1982957,2020-841605,2020-01-02,1,Vente,544000.0,170.0,CHE DE SAINT BONNAVENTURE,0142,83580.0,83065,Gassin,83,830650000A5133,1.0,1,1.0,Maison,50.0,3.0,S,sols,523.0,6.620727,43.262253
2276683,2020-974246,2020-11-20,1,Vente,360000.0,20.0,AV DE LA DIVISION LECLERC,2530,93350.0,93013,Le Bourget,93,930130000K0005,60.0,1,4.0,Local industriel. commercial ou assimilé,440.0,0.0,S,sols,60.0,2.423839,48.932272
119061,2020-52652,2020-03-05,1,Adjudication,562000.0,5629.0,RTE DE VALBONNE,0820,6410.0,6018,Biot,6,06018000AV0106,5.0,1,1.0,Maison,200.0,5.0,S,sols,500.0,7.050574,43.639424
2265315,2020-968560,2020-10-16,1,Vente,125000.0,242.0,RUE DE STALINGRAD,8583,93700.0,93029,Drancy,93,93029000AS0132,19.0,1,1.0,Maison,50.0,3.0,S,sols,46.0,2.417232,48.918793
110059,2020-48536,2020-03-04,1,Vente,280000.0,456.0,AV GENERAL DE GAULLE,0020,6690.0,6147,Tourrette-Levens,6,061470000B1397,1,1,2.0,Appartement,57.0,4.0,S,sols,365.0,7.274739,43.79123
2271263,2020-971597,2020-05-19,1,Vente,50000.0,31.0,RUE CHAUDRON,1472,93210.0,93066,Saint-Denis,93,93066000CS0018,12.0,1,2.0,Appartement,32.0,2.0,S,sols,2.0,2.361919,48.907446
155107,2020-67381,2020-02-19,1,Vente,246450.0,55.0,RUE AUGUSTE RENOIR,0038,7500.0,7102,Guilherand-Granges,7,07102000AP0194,55.0,1,1.0,Maison,96.0,5.0,S,sols,401.0,4.866351,44.92752
259363,2020-113582,2020-07-17,1,Vente,260000.0,225.0,CHE DE SAINT MARTIN CELONY,2797,13090.0,13001,Aix-en-Provence,13,13001000MO0437,1.0,1,1.0,Maison,102.0,5.0,T,terres,1000.0,5.403054,43.56321
1750183,2020-736926,2020-05-15,1,Vente,287700.0,370.0,CHE DES PLAGNES,0202,74130.0,74189,Mont-Saxonnex,74,741890000B0460,9.0,1,1.0,Maison,79.0,5.0,S,sols,409.0,6.476657,46.05369
2313425,2020-993112,2020-02-14,1,Vente,530000.0,82.0,RUE HENRI BARBUSSE,4440,94800.0,94076,Villejuif,94,940760000P0018,16.0,1,1.0,Maison,148.0,6.0,S,sols,288.0,2.369057,48.804252
1850229,2020-782854,2020-10-20,1,Vente,280000.0,17.0,ALL RENE DESCARTES,6300,77186.0,77337,Noisiel,77,77337000AK0031,129.0,1,1.0,Maison,111.0,5.0,S,sols,252.0,2.618977,48.847685
2334667,2020-1004641,2020-03-09,1,Vente,636980.0,11.0,RUE DU MONUMENT,6276,94500.0,94017,Champigny-sur-Marne,94,94017000BG0079,2.0,1,1.0,Maison,130.0,6.0,S,sols,400.0,2.516133,48.813006
1831959,2020-774307,2020-12-01,1,Vente,327000.0,154.0,CHE DE HUIRY,0560,77860.0,77128,Couilly-Pont-aux-Dames,77,771280000A1758,4.0,1,1.0,Maison,130.0,5.0,S,sols,648.0,2.856507,48.889955
1776657,2020-749604,2020-06-10,1,Vente,158950.0,118.0,AV RENE COTY,6863,76600.0,76351,Le Havre,76,76351000JJ0040,35.0,1,2.0,Appartement,70.0,3.0,S,sols,19.0,0.116386,49.497985
1280024,2020-529363,2020-11-05,1,Vente,85000.0,5187.0,LA THEBAUDIERE,C565,53160.0,53053,Champgenéteux,53,530530000B1070,11.0,1,1.0,Maison,110.0,6.0,P,prés,12694.0,-0.393332,48.286933
1609868,2020-676567,2020-02-24,1,Vente,645000.0,8.0,PAS LAVOISIER,1100,69300.0,69034,Caluire-et-Cuire,69,69034000AN0153,68,1,1.0,Maison,90.0,5.0,S,sols,428.0,4.843524,45.792427
1775556,2020-748925,2020-04-14,1,Vente,224000.0,5.0,RUE JULES GUESDE,4565,76620.0,76351,Le Havre,76,76351000PK0267,1.0,1,1.0,Maison,123.0,4.0,S,sols,123.0,0.114779,49.50592
921404,2020-385157,2020-10-09,1,Vente,195000.0,33.0,AV DU JUNKA,0225,40480.0,40328,Vieux-Boucau-les-Bains,40,40328000AP0126,1,1,2.0,Appartement,60.0,3.0,J,jardins,99.0,-1.410604,43.787958
1830928,2020-773910,2020-10-20,1,Vente,129000.0,9.0,GR GRANDE RUE,0400,77440.0,77280,Mary-sur-Marne,77,77280000AB0156,26.0,1,2.0,Appartement,47.0,3.0,AG,terrains d'agrément,86.0,3.026162,49.015273
1758433,2020-740469,2020-05-27,1,Vente,80000.0,188.0,CHE DE LA RENOUILLERE,0380,74140.0,74263,Sciez,74,74263000BY0029,60,1,1.0,Maison,45.0,3.0,S,sols,158.0,6.394191,46.341142
2267288,2020-969652,2020-11-27,1,Vente,292000.0,20.0,RUE DE L INTERNATIONALE,4650,93000.0,93008,Bobigny,93,93008000AR0219,1.0,1,1.0,Maison,90.0,5.0,S,sols,232.0,2.461257,48.910224
2259884,2020-965757,2020-03-13,1,Vente,346800.0,1.0,RUE DAVID LEDER,2510,93140.0,93010,Bondy,93,93010000BG0112,5.0,1,1.0,Maison,96.0,5.0,S,sols,182.0,2.477281,48.892004
1325424,2020-548307,2020-04-03,1,Vente,460000.0,6865.0,PORT LA LANDE,B586,56640.0,56005,Arzon,56,56005000AW0061,117,1,1.0,Maison,40.0,2.0,S,sols,44.0,-2.893653,47.539753
118621,2020-52452,2020-05-28,1,Vente,567550.0,961.0,AV DE LA BORDE,0070,6250.0,6085,Mougins,6,06085000CN0011,2.0,1,1.0,Maison,108.0,4.0,S,sols,500.0,6.971777,43.577586
285148,2020-125150,2020-11-17,1,Vente,130000.0,20.0,RUE BUTEMPS,0040,14910.0,14059,Benerville-sur-Mer,14,140590000A0395,2.0,1,1.0,Maison,31.0,2.0,S,sols,104.0,0.051879,49.34833
958059,2020-399396,2020-10-22,1,Vente,36500.0,215.0,CHE DE LA CASERNE,0070,42360.0,42073,Cottance,42,420730000B0209,7.0,1,1.0,Maison,70.0,3.0,S,sols,183.0,4.297251,45.795811
1703334,2020-716768,2020-09-23,1,Vente,270000.0,4.0,ALL DE LA LANDE SAINT PIERRE,0115,72230.0,72260,Ruaudin,72,72260000AH0004,59.0,1,1.0,Maison,90.0,4.0,AG,terrains d'agrément,1945.0,0.274886,47.933078
1701378,2020-715806,2020-07-22,1,Vente,128000.0,4.0,ALL DE CHAMBORD,1062,72000.0,72181,Le Mans,72,72181000NR0049,78.0,1,1.0,Maison,80.0,4.0,S,sols,239.0,0.176058,48.02215
1636514,2020-690366,2020-06-30,1,Vente,385000.0,9.0,RES DOMAINE DE LA COTE,A040,69530.0,69027,Brignais,69,69027000AH0087,9.0,1,1.0,Maison,99.0,5.0,J,jardins,520.0,4.744014,45.681597
744361,2020-306677,2020-03-02,1,Vente,347000.0,70.0,RUE DE L'ARNEDE,0006,34570.0,34320,Vailhauquès,34,34320000AC0113,5.0,1,1.0,Maison,124.0,4.0,AG,terrains d'agrément,1420.0,3.723289,43.673635
1887182,2020-800425,2020-04-29,1,Vente,288000.0,32.0,BD DE L EUROPE,0185,78540.0,78643,Vernouillet,78,78643000AE0166,5.0,1,1.0,Maison,81.0,6.0,AG,terrains d'agrément,569.0,1.98659,48.97133
1993437,2020-847533,2020-09-10,1,Vente,300000.0,191.0,RUE DE BAYLE,0161,83140.0,83129,Six-Fours-les-Plages,83,83129000AH0792,1.0,1,1.0,Maison,88.0,5.0,S,sols,227.0,5.845834,43.092869
137127,2020-60782,2020-09-04,1,Vente,605000.0,54.0,CHE DE PEIREBELLE,0258,6560.0,6152,Valbonne,6,06152000BB0254,2.0,1,1.0,Maison,132.0,4.0,S,sols,500.0,6.998919,43.632472
115656,2020-51008,2020-02-19,1,Vente,637000.0,223.0,BD DE LA SOURCE,0770,6410.0,6018,Biot,6,06018000AR0044,13.0,1,1.0,Maison,227.0,6.0,S,sols,55.0,7.058679,43.637439
2068345,2020-883869,2020-11-13,1,Vente,150000.0,112.0,RUE DE SAINT JEAN DE MONTS,1780,85690.0,85164,Notre-Dame-de-Monts,85,85164000AM0203,4.0,1,1.0,Maison,68.0,3.0,S,sols,96.0,-2.1325,46.822351
880449,2020-368628,2020-11-05,1,Vente,253000.0,680.0,RTE DE SAINT DONAT,0240,38250.0,38205,Lans-en-Vercors,38,38205000AD0040,3.0,1,1.0,Maison,38.0,3.0,S,sols,260.0,5.588372,45.122824
1987779,2020-844067,2020-01-24,1,Vente,313000.0,35.0,RES L OREE DE LA GARDE,A518,83130.0,83062,La Garde,83,83062000AI0800,1.0,1,1.0,Maison,94.0,5.0,S,sols,192.0,6.002787,43.124752
1632596,2020-688494,2020-12-21,1,Vente,371900.0,12.0,ALL HECTOR MALOT,0282,69780.0,69283,Mions,69,69283000BD0191,3.0,1,1.0,Maison,101.0,7.0,S,sols,329.0,4.949262,45.654515
1577075,2020-661353,2020-05-28,1,Vente,131250.0,18.0,RUE DU VILLAGE,0130,64320.0,64041,Aressy,64,64041000AE0043,2.0,1,2.0,Appartement,103.0,4.0,S,sols,1818.0,-0.323548,43.274975
2215168,2020-942284,2020-06-16,1,Vente,304500.0,11.0,DOM DE VILLEJUST,A100,91140.0,91666,Villejust,91,91666000AA0279,1.0,1,1.0,Maison,92.0,4.0,S,sols,49.0,2.239335,48.682763
1629856,2020-687189,2020-10-01,1,Vente,317500.0,4.0,RUE DE LA MAIRIE,0440,69320.0,69276,Feyzin,69,69276000AS0108,4.0,1,2.0,Appartement,92.0,5.0,S,sols,942.0,4.859351,45.673733
1805950,2020-763467,2020-07-11,1,Vente,206500.0,67.0,RUE DES MAZES,1070,77140.0,77431,Saint-Pierre-lès-Nemours,77,77431000BA0010,130.0,1,1.0,Maison,103.0,5.0,S,sols,73.0,2.673122,48.274923
2006076,2020-854589,2020-10-30,1,Vente,950000.0,7.0,SEN DES ECUREUILS,0317,83230.0,83019,Bormes-les-Mimosas,83,83019000BD0011,336.0,1,1.0,Maison,95.0,4.0,S,sols,194.0,6.354669,43.1052
1439204,2020-602545,2020-07-01,1,Vente,120000.0,1.0,SQ DE LA CHOQUE,0815,59400.0,59122,Cambrai,59,59122000AP0431,145.0,1,2.0,Appartement,70.0,3.0,S,sols,2994.0,3.23628,50.175139
707376,2020-292119,2020-12-04,1,Vente,262000.0,14.0,RUE DES FOUGERES,0116,33370.0,33013,Artigues-près-Bordeaux,33,33013000AN0115,7.0,1,1.0,Maison,73.0,4.0,S,sols,705.0,-0.483677,44.855337
2260446,2020-966091,2020-05-25,1,Vente,500000.0,70.0,RUE DE PARIS,7125,93260.0,93045,Les Lilas,93,930450000G0086,17.0,1,2.0,Appartement,67.0,3.0,S,sols,33.0,2.413897,48.878709
1573787,2020-659872,2020-02-27,1,Vente,110500.0,7.0,RUE MARCA,2780,64000.0,64445,Pau,64,64445000CE0100,14.0,1,2.0,Appartement,86.0,5.0,S,sols,17.0,-0.377544,43.294426
91818,2020-38852,2020-10-14,1,Vente,640000.0,1015.0,BD MAL LECLERC,0158,6360.0,6059,Èze,6,06059000AE0207,78,1,1.0,Maison,100.0,4.0,S,sols,288.0,7.350075,43.733975
2335621,2020-1005158,2020-05-19,1,Vente,150000.0,30.0,AV GEORGES CLEMENCEAU,4140,94170.0,94058,Le Perreux-sur-Marne,94,94058000AL0016,9.0,1,2.0,Appartement,19.0,1.0,S,sols,23.0,2.506897,48.837701
1786342,2020-754594,2020-11-12,1,Vente,188000.0,5236.0,IMP DES JONQUILLES,0153,76110.0,76650,Saint-Sauveur-d'Émalleville,76,766500000A0297,2.0,1,1.0,Maison,90.0,3.0,J,jardins,1987.0,0.304363,49.609512
1588464,2020-666358,2020-02-14,1,Vente,339600.0,25.0,RUE ZALDI,2269,64700.0,64260,Hendaye,64,64260000AD1160,2.0,1,1.0,Maison,90.0,3.0,S,sols,396.0,-1.753254,43.36792
2019710,2020-860918,2020-10-22,1,Vente,140000.0,5009.0,SAINT MARTIN,B022,84290.0,84061,Lagarde-Paréol,84,840610000B0268,1.0,1,1.0,Maison,90.0,5.0,S,sols,500.0,4.866473,44.227099
1474788,2020-619132,2020-02-27,1,Vente,140000.0,2.0,IMP DE LA CHAUFFERETTE,0310,60300.0,60612,Senlis,60,60612000AE0316,1.0,1,4.0,Local industriel. commercial ou assimilé,34.0,0.0,AG,terrains d'agrément,22.0,2.584634,49.205233
2069757,2020-884555,2020-12-11,1,Vente,150000.0,14.0,RUE DE L'ORGATTE,1465,85690.0,85164,Notre-Dame-de-Monts,85,85164000AR0129,68.0,1,1.0,Maison,49.0,3.0,S,sols,169.0,-2.133961,46.837287
2304773,2020-988377,2020-05-15,1,Vente,339500.0,1.0,RUE DE GRENOBLE,4175,94700.0,94046,Maisons-Alfort,94,940460000Q0046,20.0,1,2.0,Appartement,63.0,3.0,S,sols,1.0,2.442049,48.806309
1840599,2020-778250,2020-05-25,1,Vente,140000.0,50.0,AV MATTEOTI,0860,77270.0,77514,Villeparisis,77,77514000AM0300,5.0,1,2.0,Appartement,31.0,2.0,S,sols,51.0,2.608081,48.942813
1782056,2020-752365,2020-03-11,1,Vente,213000.0,13.0,RUE SAINT JUST,1182,76700.0,76341,Harfleur,76,76341000AI0903,2.0,1,2.0,Appartement,29.0,2.0,S,sols,23.0,0.200533,49.506709
1945826,2020-826709,2020-11-27,1,Vente,186000.0,17.0,HAM JEAN RACINE,4539,80090.0,80021,Amiens,80,80021000DN0015,66.0,1,1.0,Maison,88.0,5.0,S,sols,452.0,2.335591,49.867432
110200,2020-48594,2020-04-02,1,Vente,335000.0,5262.0,SERRE DE NAIRAUD,B117,6470.0,6016,Beuil,6,060160000H0630,3,1,1.0,Maison,100.0,5.0,T,terres,26.0,6.962312,44.08871
1785890,2020-754354,2020-10-23,1,Vente,160000.0,5270.0,HAMEAU DU HEROBOC,B007,76430.0,76551,Sainneville,76,765510000B0399,1.0,1,1.0,Maison,122.0,6.0,P,prés,1265.0,0.284194,49.543181
1628650,2020-686571,2020-08-26,1,Vente,306000.0,32.0,RUE JEAN MACE,0577,69960.0,69273,Corbas,69,69273000BM0230,21.0,1,1.0,Maison,95.0,4.0,S,sols,213.0,4.902955,45.660595
2311918,2020-992229,2020-12-17,1,Vente,180000.0,66.0,RUE DES MECHES,6151,94000.0,94028,Créteil,94,94028000AV0122,1.0,1,1.0,Maison,117.0,4.0,S,sols,154.0,2.454164,48.791152
1898580,2020-806204,2020-04-30,1,Vente,126000.0,59.0,RUE SAINT BONAVENTURE,1830,78200.0,78361,Mantes-la-Jolie,78,78361000AD0401,1.0,1,2.0,Appartement,53.0,3.0,S,sols,89.0,1.720208,48.983727
1579475,2020-662443,2020-08-26,1,Vente,280000.0,6.0,RUE DES OEILLETS,0730,64140.0,64348,Lons,64,64348000AO0049,106.0,1,1.0,Maison,145.0,7.0,S,sols,269.0,-0.392757,43.335678
102783,2020-44696,2020-07-24,1,Vente,758400.0,290.0,CHE DE SAQUIER,6104,6200.0,6088,Nice,6,06088000AS0110,3,1,2.0,Appartement,54.0,3.0,S,sols,1000.0,7.200942,43.735833
146861,2020-64675,2020-05-18,1,Vente,150000.0,5276.0,LES RAMIERES,B057,7800.0,7240,Saint-Georges-les-Bains,7,07240000ZH0094,4.0,1,2.0,Appartement,67.0,3.0,S,sols,330.0,4.816227,44.839823
868731,2020-363228,2020-01-23,1,Vente,112000.0,11.0,RUE LOUIS AVRIL,0316,38220.0,38562,Vizille,38,38562000AO0167,2.0,1,1.0,Maison,50.0,3.0,S,sols,133.0,5.766827,45.080494
976534,2020-406977,2020-09-23,1,Vente,100000.0,12.0,BD DE LA BOISSONNETTE,0099,42110.0,42094,Feurs,42,42094000AM0312,4.0,1,1.0,Maison,80.0,5.0,S,sols,401.0,4.228109,45.739036
2372014,2020-1020857,2020-01-31,1,Vente,340000.0,25.0,RUE DE LA BARRE,0090,95880.0,95210,Enghien-les-Bains,95,95210000AD0393,12.0,1,1.0,Maison,43.0,2.0,S,sols,50.0,2.314,48.96513
1834297,2020-775186,2020-02-20,1,Vente,228000.0,6.0,DOM DE CLAIRBOIS,A001,77920.0,77441,Samois-sur-Seine,77,77441000AN0035,6.0,1,1.0,Maison,65.0,3.0,S,sols,70.0,2.747721,48.446935
1833226,2020-774772,2020-01-08,1,Vente,420000.0,30.0,RUE DU VIEUX RU,0580,77210.0,77014,Avon,77,770140000C1328,2.0,1,1.0,Maison,129.0,6.0,AG,terrains d'agrément,300.0,2.728389,48.410611
1774361,2020-748428,2020-02-07,1,Vente,121000.0,6.0,RUE BLASCO IBANEZ,0890,76600.0,76351,Le Havre,76,763510000M3075,3.0,1,1.0,Maison,80.0,3.0,S,sols,82.0,0.154304,49.492735
1785957,2020-754387,2020-10-21,1,Vente,26000.0,5481.0,RTE DE GONFREVILLE CAILLOT,0260,76110.0,76141,Bréauté,76,761410000A0032,5.0,1,1.0,Maison,20.0,1.0,J,jardins,600.0,0.40565,49.634147
120838,2020-53391,2020-07-20,1,Vente,1200000.0,322.0,CHE DE PIGRANEL,0860,6250.0,6085,Mougins,6,06085000AZ0209,1.0,1,1.0,Maison,270.0,7.0,AG,terrains d'agrément,2002.0,6.992291,43.607212
135493,2020-60150,2020-06-29,1,Vente,597980.0,2470.0,RTE METROPOLITAINE 18,0003,6640.0,6122,Saint-Jeannet,6,06122000AP0178,5.0,1,2.0,Appartement,91.0,3.0,S,sols,61.0,7.147722,43.739683
900910,2020-376947,2020-01-27,1,Vente,175500.0,32.0,IMP DES CLAIRIERES,0072,40510.0,40296,Seignosse,40,40296000AV0001,15.0,1,1.0,Maison,43.0,3.0,AG,terrains d'agrément,38.0,-1.432528,43.700879
1943505,2020-825589,2020-08-24,1,Vente,63000.0,31.0,RUE DE LA CONTRESCARPE,2020,80000.0,80021,Amiens,80,80021000EH0018,2.0,1,1.0,Maison,31.0,2.0,S,sols,11.0,2.306073,49.887865
118620,2020-52452,2020-05-28,1,Vente,567550.0,961.0,AV DE LA BORDE,0070,6250.0,6085,Mougins,6,06085000CN0011,2.0,1,1.0,Maison,108.0,4.0,AG,terrains d'agrément,604.0,6.971777,43.577586
1781902,2020-752298,2020-02-28,1,Vente,102850.0,1.0,RUE DU MAL JUIN,0675,76170.0,76384,Lillebonne,76,76384000BK0363,1.0,1,1.0,Maison,87.0,4.0,S,sols,348.0,0.54578,49.524723
2062068,2020-881054,2020-02-11,1,Vente,205280.0,18.0,RUE DE LA GARENNE,1912,85160.0,85234,Saint-Jean-de-Monts,85,85234000AM0160,7.0,1,1.0,Maison,73.0,3.0,S,sols,306.0,-2.053822,46.789836
126632,2020-56243,2020-02-28,1,Vente,475000.0,9.0,ALL DU BOUAN-ER,0475,6400.0,6029,Cannes,6,06029000BD0115,2.0,1,1.0,Maison,115.0,4.0,S,sols,282.0,7.006153,43.566255
2278638,2020-975156,2020-01-13,1,Vente,235000.0,56.0,AV DU CLOCHER,0800,93600.0,93005,Aulnay-sous-Bois,93,93005000BQ0135,11.0,1,2.0,Appartement,65.0,3.0,S,sols,47.0,2.503572,48.925723
1635387,2020-689850,2020-05-25,1,Vente,270145.0,1.0,RUE GUILLAUME APOLLINAIRE,0123,69310.0,69152,Pierre-Bénite,69,69152000AK0209,1.0,1,1.0,Maison,76.0,4.0,S,sols,221.0,4.831831,45.700437
1712447,2020-720635,2020-12-22,1,Vente,170000.0,48.0,RUE OLIVIER GENDEBIEN,3841,72100.0,72181,Le Mans,72,72181000KP0704,3.0,1,1.0,Maison,127.0,6.0,S,sols,240.0,0.196487,47.96046
1901661,2020-807602,2020-09-16,1,Vente,122000.0,12.0,RUE CAMELINAT,0160,78711.0,78362,Mantes-la-Ville,78,78362000AT0070,1.0,1,1.0,Maison,66.0,3.0,J,jardins,228.0,1.7083,48.980117
975537,2020-406571,2020-08-27,1,Vente,138000.0,1.0,IMP FERNAND LEGER,0425,42600.0,42147,Montbrison,42,42147000AY0133,42.0,1,1.0,Maison,81.0,4.0,S,sols,254.0,4.051316,45.614131
272539,2020-119587,2020-03-11,1,Vente,330000.0,10.0,LOT LES BARRES,A005,13113.0,13049,Lamanon,13,130490000A0641,10.0,1,1.0,Maison,105.0,4.0,S,sols,730.0,5.073364,43.692164
281152,2020-123256,2020-06-04,1,Vente,157000.0,16.0,RUE DU CHATEAU D EAU,0170,14160.0,14225,Dives-sur-Mer,14,14225000AH0127,4.0,1,1.0,Maison,71.0,3.0,S,sols,224.0,-0.10405,49.282143
229624,2020-97599,2020-08-20,1,Vente,210000.0,147.0,RES DAUPHINE RUE LECHATE,A307,13015.0,13215,Marseille 15e Arrondissement,13,132159020A0225,37,1,1.0,Maison,71.0,5.0,J,jardins,199.0,5.373093,43.351281
73170,2020-28189,2020-06-18,1,Vente,300000.0,9005.0,AV DES SAVELS,0984,4100.0,4112,Manosque,4,04112000AZ0122,2,1,1.0,Maison,248.0,8.0,AG,terrains d'agrément,1000.0,5.781876,43.824428
402700,2020-169851,2020-12-16,1,Vente,510000.0,27.0,AV ST ERWAN,0550,22430.0,22054,Erquy,22,22054000AB0167,60.0,1,1.0,Maison,194.0,5.0,AG,terrains d'agrément,1216.0,-2.443342,48.645472
135810,2020-60276,2020-07-09,1,Vente,431100.0,73.0,CHE DE LA VALMOURA,0495,6530.0,6118,Saint-Cézaire-sur-Siagne,6,061180000D1044,3.0,1,1.0,Maison,90.0,4.0,AG,terrains d'agrément,1140.0,6.809988,43.640797
1824433,2020-771196,2020-03-04,1,Vente,180000.0,2.0,PL DE L HOTEL DE VILLE,0370,77260.0,77183,La Ferté-sous-Jouarre,77,77183000AK0161,26.0,1,4.0,Local industriel. commercial ou assimilé,95.0,0.0,S,sols,10.0,3.129371,48.95052
1571537,2020-658920,2020-08-19,1,Vente,117950.0,2.0,PL CHANCELIER DUPRAT,0320,63500.0,63178,Issoire,63,63178000AI0050,8.0,1,2.0,Appartement,80.0,3.0,S,sols,220.0,3.248351,45.54638
398415,2020-167856,2020-09-07,1,Vente,400000.0,6.0,CHE ST GONZAGUE,0341,22430.0,22054,Erquy,22,22054000AB0167,20.0,1,1.0,Maison,157.0,5.0,S,sols,914.0,-2.443342,48.645472
574533,2020-234486,2020-10-14,1,Vente,191315.0,29.0,RUE DE L OBIER,5812,30900.0,30189,Nîmes,30,30189000KW0214,70.0,1,1.0,Maison,93.0,5.0,S,sols,330.0,4.320615,43.82799
1901502,2020-807535,2020-09-14,1,Vente,210000.0,17.0,RUE SAINT BONAVENTURE,1830,78200.0,78361,Mantes-la-Jolie,78,78361000AD0307,9.0,1,1.0,Maison,64.0,4.0,S,sols,126.0,1.723004,48.985065
110202,2020-48594,2020-04-02,1,Vente,335000.0,5262.0,SERRE DE NAIRAUD,B117,6470.0,6016,Beuil,6,060160000H0630,3,1,1.0,Maison,100.0,5.0,L,landes,320.0,6.962312,44.08871
123516,2020-54665,2020-10-15,1,Vente,635000.0,104.0,TRA DU PAS DE MARIE,0820,6250.0,6085,Mougins,6,06085000BW0157,2.0,1,1.0,Maison,117.0,4.0,S,sols,37.0,6.998807,43.59364
1640992,2020-692469,2020-12-15,1,Vente,312400.0,9.0,AV FERDINAND GAILLARD,0300,69530.0,69027,Brignais,69,69027000AS0101,10,1,1.0,Maison,84.0,5.0,S,sols,125.0,4.754261,45.676273
1812858,2020-766552,2020-10-08,1,Vente,487000.0,3.0,RUE CHARLES MEUNIER,0140,77210.0,77014,Avon,77,770140000A1310,103.0,1,2.0,Appartement,133.0,4.0,AG,terrains d'agrément,16.0,2.722483,48.414312
750460,2020-309864,2020-08-03,1,Vente,221000.0,13.0,RUE CHANTEBRISE,0189,34110.0,34108,Frontignan,34,34108000BS0472,18.0,1,1.0,Maison,88.0,5.0,S,sols,274.0,3.729739,43.425264
868374,2020-363048,2020-02-03,1,Vente,114100.0,510.0,RUE DES ALTHAEAS,0006,38530.0,38314,Pontcharra,38,38314000AO0287,4.0,1,1.0,Maison,72.0,3.0,S,sols,28.0,6.014182,45.435596
139661,2020-62005,2020-05-25,1,Vente,370000.0,154.0,CHE DES ROMARINS,0857,6700.0,6123,Saint-Laurent-du-Var,6,06123000AP0314,1.0,1,1.0,Maison,74.0,4.0,AB,terrains a bâtir,16.0,7.181019,43.664794
1312185,2020-543023,2020-08-24,1,Vente,194000.0,46.0,AV DE LA LIBERATION,1010,54300.0,54329,Lunéville,54,54329000AX0371,1,1,1.0,Maison,110.0,5.0,J,jardins,402.0,6.513484,48.583603
1801692,2020-761709,2020-05-27,1,Vente,323500.0,40.0,DOM DU BOIS DE LA GARENNE,A001,77760.0,77001,Achères-la-Forêt,77,770010000A1623,40.0,1,1.0,Maison,118.0,7.0,S,sols,1000.0,2.561423,48.360993
1475710,2020-619603,2020-05-14,1,Vente,135000.0,2.0,RES DU PARC DES TROIS FORETS,A002,60520.0,60142,La Chapelle-en-Serval,60,60142000AC0162,3.0,1,2.0,Appartement,43.0,2.0,AG,terrains d'agrément,74.0,2.534392,49.128605
1235514,2020-511713,2020-02-07,1,Vente,45000.0,2.0,RUE DES CHAUFFOURS,0040,51270.0,51247,Fèrebrianges,51,51247000AE0252,1.0,1,1.0,Maison,144.0,4.0,S,sols,203.0,3.843842,48.87412
106253,2020-46627,2020-05-25,1,Vente,500000.0,884.0,RTE DU SANATORIUM,0353,6500.0,6067,Gorbio,6,060670000C0398,101,1,1.0,Maison,150.0,4.0,S,sols,57.0,7.472048,43.780724
1750730,2020-737136,2020-05-15,1,Vente,547400.0,459.0,RTE DE BARTOUD,0031,74920.0,74083,Combloux,74,740830000A2846,6.0,1,1.0,Maison,92.0,4.0,S,sols,1000.0,6.620103,45.912104
1993789,2020-847768,2020-09-16,1,Vente,604050.0,113.0,CHE DU VALLON DES HIRONDELLES,7036,83200.0,83137,Toulon,83,83137000AK0065,1.0,1,1.0,Maison,138.0,6.0,S,sols,992.0,5.951704,43.132827
767914,2020-318609,2020-10-30,1,Vente,63300.0,5.0,RUE SARRET DE COUSSERGUES,2131,34300.0,34003,Agde,34,34003000NZ0010,27.0,1,2.0,Appartement,23.0,1.0,AG,terrains d'agrément,19.0,3.500888,43.285165
2330597,2020-1002472,2020-10-29,1,Vente,110000.0,19.0,RUE JULES GUESDE,1010,94190.0,94078,Villeneuve-Saint-Georges,94,94078000AO0133,5.0,1,2.0,Appartement,40.0,3.0,S,sols,15.0,2.448435,48.734279
1834125,2020-775133,2020-02-14,1,Vente,180000.0,34.0,RUE LEON RICHET,0793,77250.0,77316,Moret-Loing-et-Orvanne,77,77316491AN0382,24.0,1,1.0,Maison,100.0,5.0,S,sols,479.0,2.78803,48.383483
1840600,2020-778250,2020-05-25,1,Vente,140000.0,50.0,AV MATTEOTI,0860,77270.0,77514,Villeparisis,77,77514000AM0300,6.0,1,2.0,Appartement,31.0,2.0,S,sols,39.0,2.608081,48.942813
143941,2020-63808,2020-02-10,1,Vente,148000.0,5.0,LOT LES HAUTS DU FANGEAS,A022,7000.0,7186,Privas,7,07186000AD0007,5.0,1,1.0,Maison,106.0,5.0,S,sols,269.0,4.579429,44.731505
1648127,2020-695450,2020-08-21,1,Vente,743050.0,4.0,RTE DE ST FORTUNAT,1020,69370.0,69194,Saint-Didier-au-Mont-d'Or,69,69194000AC0144,1,1,1.0,Maison,117.0,5.0,S,sols,150.0,4.800912,45.819364
2061868,2020-880949,2020-02-11,1,Vente,108000.0,35.0,RUE DE LA GUILLOTIERE,1190,85690.0,85164,Notre-Dame-de-Monts,85,85164000AH0266,9.0,1,1.0,Maison,46.0,2.0,S,sols,91.0,-2.130454,46.835781
1092900,2020-459028,2020-11-16,1,Vente,261000.0,62.0,RUE DE CAMBRAI,0193,45160.0,45232,Olivet,45,45232000BK0281,62.0,1,1.0,Maison,118.0,5.0,AG,terrains d'agrément,637.0,1.904713,47.840221
106476,2020-46741,2020-05-28,1,Vente,270000.0,252.0,RTE DES CABROLLES,0210,6500.0,6083,Menton,6,06083000AD0102,2,1,2.0,Appartement,50.0,3.0,S,sols,581.0,7.48262,43.788684
1221105,2020-506260,2020-08-01,1,Vente,129670.0,20.0,AV DE LA BREQUETTE,0010,50590.0,50349,Montmartin-sur-Mer,50,50349000AN0080,49,1,1.0,Maison,35.0,3.0,S,sols,210.0,-1.551054,48.979691
2318740,2020-996083,2020-07-31,1,Vente,295000.0,64.0,RUE DES ROUX,8154,94240.0,94038,L'Haÿ-les-Roses,94,94038000AE0055,1.0,1,1.0,Maison,62.0,5.0,S,sols,139.0,2.324245,48.7715
873032,2020-365384,2020-11-09,1,Vente,110000.0,13.0,CHE CITE DU MOUTIERS,0247,38420.0,38150,Domène,38,381500000D0646,21.0,1,2.0,Appartement,45.0,2.0,S,sols,330.0,5.834659,45.202462
121003,2020-53460,2020-08-04,1,Vente,468800.0,190.0,CHE DE POURSEL,0230,6550.0,6108,La Roquette-sur-Siagne,6,06108000AR0087,10.0,1,1.0,Maison,90.0,4.0,AG,terrains d'agrément,1264.0,6.957668,43.574926
1941965,2020-824816,2020-07-24,1,Vente,240500.0,3.0,RUE PHILIPPE DE COMMYNES,6362,80000.0,80021,Amiens,80,80021000HR0026,204.0,1,1.0,Maison,89.0,3.0,AG,terrains d'agrément,814.0,2.289172,49.876249
1086166,2020-455816,2020-05-14,1,Vente,261900.0,13.0,RUE DE LA MARNE,0605,45160.0,45232,Olivet,45,45232000BK0281,13.0,1,1.0,Maison,118.0,5.0,AG,terrains d'agrément,1370.0,1.904713,47.840221
923112,2020-385888,2020-10-30,1,Vente,220000.0,18.0,HAM DE L ESTELLE,A029,40510.0,40296,Seignosse,40,40296000AW0049,18,1,2.0,Appartement,37.0,3.0,J,jardins,76.0,-1.429217,43.710127
278598,2020-122025,2020-01-03,1,Vente,210000.0,1.0,RUE CHARLES KOECHLIN,0420,14640.0,14754,Villers-sur-Mer,14,14754000AB0463,8.0,1,1.0,Maison,32.0,2.0,S,sols,792.0,-0.010169,49.319267
1266743,2020-524677,2020-03-03,2,Vente,429000.0,232.0,L HABIT,B101,53420.0,53048,Chailland,53,53048000AI0006,3.0,1,1.0,Maison,84.0,3.0,S,sols,475.0,-0.834311,48.251585
252653,2020-110390,2020-01-28,1,Vente,598200.0,485.0,CHE COMMANDERIE ST JEAN MALTE,0697,13080.0,13001,Aix-en-Provence,13,13001000HS0345,14.0,1,1.0,Maison,117.0,5.0,S,sols,428.0,5.416439,43.488435
742773,2020-305889,2020-01-31,1,Vente,246770.0,18.0,RUE DES ALOES,0004,34540.0,34023,Balaruc-les-Bains,34,34023000AP0331,50.0,1,1.0,Maison,78.0,4.0,S,sols,150.0,3.699989,43.447286
582989,2020-238135,2020-03-06,1,Vente,228800.0,83.0,RUE DES LARDIERES,1980,30133.0,30011,Les Angles,30,30011000AY0182,1.0,1,1.0,Maison,137.0,4.0,S,sols,959.0,4.764624,43.960208
1642171,2020-692998,2020-02-03,1,Vente,281000.0,54.0,RUE DU PROFESSEUR DEPERET,0911,69160.0,69244,Tassin-la-Demi-Lune,69,69244000AI0344,67,1,2.0,Appartement,56.0,3.0,AG,terrains d'agrément,112.0,4.763607,45.754343
746375,2020-307744,2020-05-29,1,Vente,262400.0,1.0,AV DU PIGNE,0093,34800.0,34076,Ceyras,34,340760000C0597,2.0,1,1.0,Maison,129.0,6.0,S,sols,544.0,3.45849,43.647578
1988877,2020-844746,2020-02-21,1,Vente,297500.0,391.0,AV DE LA MER,1140,83140.0,83129,Six-Fours-les-Plages,83,83129000AM0230,2.0,1,1.0,Maison,44.0,2.0,S,sols,254.0,5.829358,43.096898
1572859,2020-659454,2020-01-28,1,Vente,135000.0,28.0,AV DU CHATEAU D'ESTE,0190,64140.0,64129,Billère,64,64129000AD0301,14.0,1,1.0,Maison,55.0,3.0,S,sols,124.0,-0.386914,43.307035
874755,2020-366200,2020-02-26,1,Vente,210825.0,12.0,LOT LE CLOS DES NEIGES,A058,38880.0,38225,Autrans-Méaudre en Vercors,38,38225021AD0139,12.0,1,1.0,Maison,32.0,2.0,S,sols,260.0,5.559859,45.185516
2218719,2020-944141,2020-12-23,1,Vente,344000.0,60.0,DOM DE VILLEJUST,A100,91140.0,91666,Villejust,91,91666000AA0285,1.0,1,1.0,Maison,92.0,4.0,S,sols,205.0,2.238683,48.683164
1775561,2020-748929,2020-04-30,1,Vente,160500.0,94.0,RUE FRANCOIS MAZELINE,3135,76600.0,76351,Le Havre,76,76351000DC0084,25.0,1,2.0,Appartement,50.0,3.0,S,sols,19.0,0.137419,49.499935
1806185,2020-763574,2020-07-03,1,Vente,303000.0,8.0,ALL JODELLE,0860,77220.0,77215,Gretz-Armainvilliers,77,772150000D1628,76.0,1,1.0,Maison,118.0,6.0,S,sols,366.0,2.729141,48.743067
113322,2020-49898,2020-10-12,1,Vente,388000.0,187.0,CHE DE LA ROCHE D'ARGENT,0085,6390.0,6015,Berre-les-Alpes,6,060150000D0294,3,1,1.0,Maison,80.0,4.0,S,sols,189.0,7.319171,43.843697
1985475,2020-842837,2020-05-28,1,Vente,295000.0,511.0,CHE ANDRE MALRAUX,0067,83136.0,83064,Garéoult,83,830640000B3262,1.0,1,1.0,Maison,120.0,5.0,S,sols,500.0,6.051451,43.34407
499922,2020-201319,2020-09-04,1,Vente,187000.0,22.0,RUE DES JARDINS,0500,26500.0,26058,Bourg-lès-Valence,26,260580000B1352,1.0,1,1.0,Maison,75.0,4.0,S,sols,257.0,4.89581,44.946195
596377,2020-243655,2020-03-17,1,Vente,105000.0,33.0,LOT OUSTALOUNNETS DU SOLEIL,A068,30430.0,30164,Méjannes-le-Clap,30,301640000C0613,33.0,1,1.0,Maison,56.0,3.0,S,sols,484.0,4.340153,44.225125
1282658,2020-530225,2020-12-28,1,Vente,130000.0,2.0,RUE DU DOCTEUR ROUX,1630,53000.0,53130,Laval,53,53130000CN0388,4.0,1,4.0,Local industriel. commercial ou assimilé,35.0,0.0,S,sols,11.0,-0.787454,48.067156
498517,2020-200636,2020-07-27,1,Vente,196000.0,8.0,ALL DES OLYMPIADES,6560,26000.0,26362,Valence,26,26362000AP0409,22.0,1,1.0,Maison,112.0,5.0,S,sols,340.0,4.926246,44.942722
2186350,2020-927778,2020-10-14,1,Vente,279000.0,26.0,RUE BAYARD,3139,91080.0,91228,Évry-Courcouronnes,91,91228182AD0015,52.0,1,1.0,Maison,97.0,6.0,S,sols,445.0,2.402911,48.623617
2200170,2020-934893,2020-11-23,1,Vente,158460.0,45.0,RUE DES MARGUERITES,1080,91160.0,91345,Longjumeau,91,91345000AH0349,2.0,1,1.0,Maison,87.0,4.0,S,sols,430.0,2.30503,48.695979
2212123,2020-940701,2020-11-17,1,Vente,287700.0,13.0,ALL LA BRUYERE,0320,91410.0,91200,Dourdan,91,91200000AN0221,12.0,1,1.0,Maison,134.0,7.0,S,sols,264.0,2.009983,48.524223
2057381,2020-878428,2020-09-30,1,Vente,129000.0,5.0,RUE DE LA GRANVILLAISE,0800,85470.0,85035,Bretignolles-sur-Mer,85,85035000BT0164,20.0,1,1.0,Maison,42.0,2.0,S,sols,85.0,-1.864694,46.624036
280833,2020-123089,2020-05-06,1,Vente,124000.0,90.0,VC RES PLEIN SOLEIL,1491,14640.0,14754,Villers-sur-Mer,14,14754000AE0237,238.0,1,2.0,Appartement,39.0,2.0,J,jardins,102.0,0.010615,49.32924
1266741,2020-524677,2020-03-03,2,Vente,429000.0,232.0,L HABIT,B101,53420.0,53048,Chailland,53,53048000AI0006,3.0,1,1.0,Maison,84.0,3.0,P,prés,27579.0,-0.834311,48.251585
2184053,2020-926515,2020-08-04,1,Vente,245000.0,9.0,VLA RAPHAEL,1360,91860.0,91215,Épinay-sous-Sénart,91,91215000AD0017,5.0,1,2.0,Appartement,11.0,1.0,S,sols,202.0,2.523885,48.694115
283964,2020-124593,2020-09-25,1,Vente,159900.0,9018.0,AV DE LA BRIGADE PIRON,0350,14640.0,14754,Villers-sur-Mer,14,14754000AO0083,16.0,1,1.0,Maison,40.0,3.0,AG,terrains d'agrément,16.0,0.003344,49.315575
1580131,2020-662767,2020-08-31,1,Vente,284000.0,16.0,RUE BETH SOUREILH,0330,64320.0,64132,Bizanos,64,64132000AC0197,17.0,1,1.0,Maison,92.0,5.0,S,sols,521.0,-0.320291,43.300091
1593231,2020-668521,2020-09-07,1,Vente,361900.0,72.0,RUE MUNHOA,0404,64122.0,64545,Urrugne,64,64545000BR0240,36.0,1,1.0,Maison,78.0,4.0,S,sols,315.0,-1.69392,43.346529
759921,2020-314524,2020-01-10,1,Vente,87000.0,2.0,AV DES CANTINIERES,0347,34300.0,34003,Agde,34,34003000OO0005,183.0,1,2.0,Appartement,23.0,1.0,AG,terrains d'agrément,38.0,3.516925,43.287329
1835281,2020-775656,2020-01-15,1,Vente,265000.0,13.0,ALL DES IFS,1942,77500.0,77108,Chelles,77,77108000BP0009,40.0,1,1.0,Maison,82.0,5.0,S,sols,165.0,2.584769,48.884206
1986586,2020-843379,2020-12-08,1,Vente,249000.0,5365.0,LA GORGE DE LA TUILIERE,B020,83119.0,83025,Brue-Auriac,83,830250000H0601,1.0,1,1.0,Maison,82.0,4.0,S,sols,500.0,5.934941,43.531581
701615,2020-289586,2020-10-15,1,Vente,485000.0,56.0,ALL DES DUNES,0620,33120.0,33009,Arcachon,33,33009000AC0205,4.0,1,1.0,Maison,48.0,2.0,S,sols,148.0,-1.17656,44.655631
29095,2020-11326,2020-02-14,1,Vente,70000.0,20.0,RUE DES OEUVRES DE CHINE,1070,2300.0,2173,Chauny,2,02173000BN0008,7.0,1,1.0,Maison,80.0,4.0,S,sols,213.0,3.230812,49.620245
2186497,2020-927865,2020-10-07,1,Vente,390000.0,9001.0,RES L ERMITAGE DE SENART,A040,91330.0,91691,Yerres,91,91691000AY0522,6.0,1,1.0,Maison,102.0,5.0,S,sols,328.0,2.48044,48.692657
762617,2020-315920,2020-05-15,1,Vente,148500.0,14.0,PL SUZANNE VALADON,7540,34500.0,34032,Béziers,34,34032000OV0015,19.0,1,1.0,Maison,68.0,4.0,S,sols,229.0,3.23032,43.357529
766666,2020-317985,2020-09-25,1,Vente,130000.0,5.0,AV DU SURINTENDANT,2169,34300.0,34003,Agde,34,34003000NZ0003,333.0,1,2.0,Appartement,28.0,2.0,AG,terrains d'agrément,24.0,3.501138,43.287097
875902,2020-366649,2020-05-05,1,Vente,425000.0,15.0,RUE DU SER PALOR,0062,38860.0,38253,Les Deux Alpes,38,38253534AB0377,5.0,1,1.0,Maison,78.0,3.0,S,sols,73.0,6.123567,45.003339
1753444,2020-738333,2020-10-02,1,Vente,351500.0,729.0,RTE DES GRANDSCHAMPS,0027,74440.0,74190,Morillon,74,741900000B3253,1,1,1.0,Maison,42.0,2.0,S,sols,935.0,6.678327,46.084986
759413,2020-314284,2020-01-31,1,Vente,158000.0,6.0,RUE DES MICOCOULIERS,5615,34500.0,34032,Béziers,34,34032000MX0343,20.0,1,1.0,Maison,74.0,4.0,S,sols,334.0,3.244543,43.336116
653451,2020-266674,2020-08-08,1,Vente,160000.0,68.0,RES CASSIOPEE LES PALOMBES,A008,33680.0,33214,Lacanau,33,33214000BW0025,68.0,1,1.0,Maison,32.0,1.0,S,sols,95.0,-1.183044,45.005546
1280029,2020-529363,2020-11-05,1,Vente,85000.0,5187.0,LA THEBAUDIERE,C565,53160.0,53053,Champgenéteux,53,530530000B1070,11.0,1,1.0,Maison,110.0,6.0,S,sols,528.0,-0.393332,48.286933
1636480,2020-690345,2020-07-03,1,Vente,407400.0,7.0,RUE LOUIS VERNAY,0114,69390.0,69268,Vourles,69,69268000AL0034,2.0,1,1.0,Maison,120.0,4.0,S,sols,36.0,4.773895,45.658684
75977,2020-29541,2020-09-29,1,Vente,124000.0,7135.0,LOT LES CATHELIERES,A003,4510.0,4110,Mallemoisson,4,041100000B0930,4,1,1.0,Maison,67.0,3.0,S,sols,51.0,6.131175,44.044927
1581499,2020-663394,2020-10-13,1,Vente,90000.0,14.0,RUE LOUIS LACAZE,2650,64000.0,64445,Pau,64,64445000CO0293,21.0,1,2.0,Appartement,38.0,2.0,S,sols,39.0,-0.368126,43.30179
560641,2020-228416,2020-01-23,1,Vente,195000.0,15.0,IMP BELLEGARDE,0922,30000.0,30189,Nîmes,30,30189000LO0123,10,1,1.0,Maison,100.0,5.0,S,sols,369.0,4.377896,43.823991
925026,2020-386687,2020-11-23,1,Vente,255660.0,19.0,RUE JEAN BAPTISTE GABARRA,1581,40130.0,40065,Capbreton,40,40065000AR0348,106,1,2.0,Appartement,55.0,3.0,AG,terrains d'agrément,30.0,-1.430723,43.641887
112190,2020-49412,2020-08-17,1,Vente,416660.0,310.0,CHE DU CANET,0007,6670.0,6034,Castagniers,6,060340000C1608,2,1,1.0,Maison,88.0,4.0,J,jardins,518.0,7.232564,43.793829
1642438,2020-693103,2020-01-31,1,Vente,615750.0,76.0,CHE DU PELOSSET,0129,69570.0,69072,Dardilly,69,69072000BL0077,10,1,1.0,Maison,111.0,5.0,AG,terrains d'agrément,1376.0,4.742482,45.797019
1784636,2020-753636,2020-08-18,1,Vente,87000.0,5271.0,HAMEAU DE GOURNAY,B005,76400.0,76240,Épreville,76,762400000A0895,3.0,1,2.0,Appartement,44.0,2.0,S,sols,141.0,0.369231,49.722656
1648432,2020-695605,2020-09-09,1,Vente,335000.0,31.0,AV MARECHAL FOCH,0600,69160.0,69244,Tassin-la-Demi-Lune,69,69244000AO0184,29,1,2.0,Appartement,86.0,4.0,AG,terrains d'agrément,86.0,4.774462,45.759198
2065881,2020-882791,2020-07-17,1,Vente,118000.0,9048.0,AV DE BAISSE,0170,85160.0,85234,Saint-Jean-de-Monts,85,85234000AW0080,48.0,1,1.0,Maison,42.0,2.0,S,sols,102.0,-2.033026,46.77171
1794652,2020-758496,2020-01-13,1,Vente,34000.0,61.0,LA MUSSINE,B073,77820.0,77100,Le Châtelet-en-Brie,77,771000000G0654,61.0,1,1.0,Maison,29.0,1.0,S,sols,259.0,2.783736,48.494788
1580569,2020-662979,2020-09-24,1,Vente,179250.0,20.0,RTE DE SAINT JACQUES,0100,64450.0,64385,Miossens-Lanusse,64,64385000ZD0027,1.0,1,1.0,Maison,112.0,4.0,S,sols,1200.0,-0.29898,43.468854
2281167,2020-976583,2020-06-02,1,Vente,245000.0,49.0,AV MAURICE METAIS,1260,93270.0,93071,Sevran,93,93071000BM0197,2.0,1,1.0,Maison,68.0,4.0,S,sols,273.0,2.527187,48.927025
1784766,2020-753704,2020-08-31,1,Vente,114000.0,1383.0,RUE DU BECQUET,0090,76170.0,76384,Lillebonne,76,76384000BA0144,6.0,1,2.0,Appartement,62.0,3.0,J,jardins,121.0,0.513953,49.536043
1777773,2020-750014,2020-08-14,1,Vente,30000.0,3.0,IMP HOUDON,4125,76600.0,76351,Le Havre,76,763510000M2985,2.0,1,2.0,Appartement,61.0,3.0,S,sols,29.0,0.151638,49.492402
1463247,2020-613768,2020-11-07,1,Vente,204000.0,4.0,RUE HENRI BARBUSSE,0080,60290.0,60524,Rantigny,60,60524000AE0342,23.0,1,1.0,Maison,88.0,5.0,J,jardins,309.0,2.440233,49.326634
1819088,2020-769135,2020-12-09,1,Vente,193000.0,2.0,RUE GEORGES CLEMENCEAU,0860,77000.0,77288,Melun,77,77288000AK0160,12.0,1,1.0,Maison,54.0,3.0,S,sols,243.0,2.662573,48.548316
1572158,2020-659176,2020-01-20,1,Vente,260000.0,24.0,RUE BETH SOUREILH,0330,64320.0,64132,Bizanos,64,64132000AC0197,21.0,1,1.0,Maison,92.0,5.0,S,sols,431.0,-0.320291,43.300091
283281,2020-124270,2020-09-05,1,Vente,120000.0,10.0,RUE DES ESCALETTES,0260,14160.0,14225,Dives-sur-Mer,14,14225000AH0146,2.0,1,1.0,Maison,63.0,3.0,S,sols,230.0,-0.105187,49.282473
911658,2020-381304,2020-07-01,1,Vente,233100.0,14.0,AV CHAMBRELENT,0047,40510.0,40296,Seignosse,40,40296000AV0001,30.0,1,1.0,Maison,48.0,3.0,AG,terrains d'agrément,57.0,-1.432528,43.700879
2203923,2020-936878,2020-09-23,1,Vente,178340.0,22.0,RTE DE LIERS,0040,91220.0,91494,Le Plessis-Pâté,91,914940000A0741,1.0,1,1.0,Maison,50.0,3.0,S,sols,215.0,2.329206,48.614004
2329510,2020-1001858,2020-09-18,1,Vente,295000.0,76.0,RES LES ROSES,A070,94520.0,94056,Périgny,94,94056000AB0281,76.0,1,1.0,Maison,103.0,4.0,S,sols,290.0,2.549127,48.69766
91817,2020-38852,2020-10-14,1,Vente,640000.0,1015.0,BD MAL LECLERC,0158,6360.0,6059,Èze,6,06059000AE0207,78,1,1.0,Maison,100.0,4.0,S,sols,35.0,7.350075,43.733975
1801884,2020-761800,2020-06-11,1,Vente,240000.0,21.0,RUE GEORGES CLEMENCEAU VENEUX,0784,77250.0,77316,Moret-Loing-et-Orvanne,77,77316491AN0382,36.0,1,1.0,Maison,100.0,5.0,S,sols,325.0,2.78803,48.383483
915985,2020-382937,2020-08-27,1,Vente,374400.0,45.0,AV DE LA MARQUEZE,0245,40510.0,40296,Seignosse,40,40296000BE0032,10.0,1,1.0,Maison,47.0,3.0,J,jardins,137.0,-1.423961,43.710828
1822745,2020-770437,2020-12-22,1,Vente,263000.0,25.0,ALL JODELLE,0860,77220.0,77215,Gretz-Armainvilliers,77,772150000D1628,74.0,1,1.0,Maison,68.0,3.0,S,sols,245.0,2.729141,48.743067
1903737,2020-808537,2020-12-16,1,Vente,146000.0,8.0,PAS FERNAND LEMIERE,0860,78200.0,78361,Mantes-la-Jolie,78,78361000AO0264,8.0,1,1.0,Maison,68.0,2.0,AG,terrains d'agrément,120.0,1.700359,48.997741
110197,2020-48594,2020-04-02,1,Vente,335000.0,5262.0,SERRE DE NAIRAUD,B117,6470.0,6016,Beuil,6,060160000H0630,3,1,1.0,Maison,100.0,5.0,S,sols,301.0,6.962312,44.08871
1787241,2020-755091,2020-12-17,1,Vente,30000.0,5272.0,HAMEAU DE GOURNAY,B005,76400.0,76240,Épreville,76,762400000A0895,14.0,1,2.0,Appartement,30.0,1.0,S,sols,150.0,0.369231,49.722656
628464,2020-258073,2020-02-05,1,Vente,100000.0,271.0,LES COURRAOUS,B052,31440.0,31085,Boutx,31,310850000C0249,5.0,1,1.0,Maison,52.0,3.0,S,sols,56.0,0.767406,42.912986
2329108,2020-1001630,2020-08-24,1,Vente,177000.0,21.0,RUE FRANCIS MARTIN,0660,94190.0,94078,Villeneuve-Saint-Georges,94,94078000AH0145,1.0,1,1.0,Maison,62.0,1.0,S,sols,97.0,2.452316,48.737536
1263937,2020-523712,2020-01-22,1,Vente,105000.0,55.0,RUE ALEXANDRE RIBOT,0100,53000.0,53130,Laval,53,53130000CM0639,14.0,1,1.0,Maison,78.0,4.0,S,sols,132.0,-0.789784,48.072088
1483013,2020-622966,2020-11-04,1,Vente,97000.0,55.0,RUE ARISTIDE BRIAND,0030,60870.0,60684,Villers-Saint-Paul,60,60684000AB0372,2.0,1,2.0,Appartement,40.0,2.0,AG,terrains d'agrément,24.0,2.489873,49.289307
975442,2020-406542,2020-08-11,1,Vente,233000.0,14.0,ALL CLOS DES CHARMES,0635,42160.0,42005,Andrézieux-Bouthéon,42,42005000AT0341,18.0,1,1.0,Maison,89.0,4.0,S,sols,345.0,4.272281,45.541628
628463,2020-258073,2020-02-05,1,Vente,100000.0,271.0,LES COURRAOUS,B052,31440.0,31085,Boutx,31,310850000C0249,26.0,1,1.0,Maison,52.0,3.0,S,sols,16.0,0.767406,42.912986
660166,2020-270370,2020-10-15,1,Vente,586150.0,23.0,RUE DE LA MANUTENTION,5895,33000.0,33063,Bordeaux,33,33063000MB0066,4.0,1,1.0,Maison,116.0,5.0,S,sols,99.0,-0.5949,44.841623
269915,2020-118319,2020-08-13,1,Vente,252000.0,172.0,ALL DE BOURGOGNE,0984,13127.0,13117,Vitrolles,13,13117000DH0021,483.0,1,1.0,Maison,95.0,6.0,S,sols,295.0,5.239021,43.457009
1786611,2020-754734,2020-11-19,1,Vente,316000.0,1114.0,RTE DES DEUX EGLISES,0080,76110.0,76650,Saint-Sauveur-d'Émalleville,76,766500000A0297,1.0,1,1.0,Maison,144.0,5.0,J,jardins,4530.0,0.304363,49.609512
873589,2020-365691,2020-01-13,1,Vente,250000.0,156.0,ALL DU MARAIS,0439,38250.0,38205,Lans-en-Vercors,38,38205000AB0077,24.0,1,1.0,Maison,71.0,4.0,S,sols,286.0,5.581617,45.128427
1584455,2020-664722,2020-02-03,1,Vente,140000.0,15.0,RUE PIERRE DAGUERRE,1400,64400.0,64422,Oloron-Sainte-Marie,64,64422000AX0142,4.0,1,1.0,Maison,76.0,5.0,S,sols,341.0,-0.614945,43.184919
2330632,2020-1002495,2020-10-15,1,Vente,378600.0,13.0,RUE ALFRED KASTLER,0006,94510.0,94060,La Queue-en-Brie,94,94060000AO0025,9.0,1,1.0,Maison,133.0,6.0,S,sols,306.0,2.583128,48.786396
139910,2020-62135,2020-06-05,1,Vente,56000.0,880.0,RTE DES BLAQUIERES,0046,6570.0,6128,Saint-Paul-de-Vence,6,06128000AN0209,4.0,1,1.0,Maison,160.0,6.0,AG,terrains d'agrément,701.0,7.128682,43.678616
750457,2020-309862,2020-08-05,1,Vente,242000.0,3.0,RUE VEGA,0913,34110.0,34108,Frontignan,34,34108000CX0231,22.0,1,1.0,Maison,103.0,5.0,S,sols,329.0,3.723388,43.425645
1819630,2020-769375,2020-12-11,1,Vente,315000.0,42.0,BD ROMAIN ROLLAND,1370,77220.0,77215,Gretz-Armainvilliers,77,772150000D1629,41.0,1,1.0,Maison,110.0,6.0,S,sols,656.0,2.726408,48.744108
2185616,2020-927457,2020-09-25,1,Vente,318000.0,6.0,RUE DE LA MARE AUX CHIENS,0410,91070.0,91086,Bondoufle,91,91086000AO0091,325.0,1,1.0,Maison,113.0,6.0,S,sols,375.0,2.382316,48.61417
2258765,2020-965146,2020-02-10,1,Vente,181000.0,42.0,RUE LA RENAISSANCE FRANCAISE,8125,93130.0,93053,Noisy-le-Sec,93,93053000AS0166,8.0,1,2.0,Appartement,59.0,2.0,S,sols,48.0,2.45499,48.885782
78813,2020-30893,2020-02-14,1,Vente,175950.0,5435.0,LA CASSE,B345,5340.0,5101,Vallouise-Pelvoux,5,051011750C1294,5,1,1.0,Maison,57.0,4.0,S,sols,114.0,6.49571,44.839739
1877147,2020-795261,2020-07-09,1,Vente,1488000.0,22.0,RUE ALEXANDRE DUMAS,0020,78110.0,78650,Le Vésinet,78,78650000AI0187,1.0,1,1.0,Maison,209.0,6.0,S,sols,780.0,2.122691,48.898652
1786329,2020-754588,2020-10-28,1,Vente,50000.0,5484.0,RTE DE GONFREVILLE CAILLOT,0260,76110.0,76141,Bréauté,76,761410000A0032,8.0,1,1.0,Maison,15.0,1.0,S,sols,600.0,0.40565,49.634147
2003703,2020-853281,2020-09-10,1,Vente,472000.0,2704.0,ANCIEN CHEM DE TOULON,1219,83110.0,83123,Sanary-sur-Mer,83,83123000AL2168,6.0,1,1.0,Maison,90.0,4.0,S,sols,600.0,5.793011,43.13231
489866,2020-196472,2020-07-20,1,Vente,120800.0,14.0,RUE FAUCHE,0180,25500.0,25411,Morteau,25,25411000AC0104,25.0,1,2.0,Appartement,49.0,2.0,J,jardins,40.0,6.602304,47.057734
2341096,2020-1007813,2020-10-15,1,Vente,520000.0,43.0,AV LAMARTINE,5110,94170.0,94058,Le Perreux-sur-Marne,94,940580000B0064,1.0,1,1.0,Maison,57.0,3.0,S,sols,296.0,2.497375,48.852107
284878,2020-125019,2020-11-07,1,Vente,245000.0,1.0,PAS ST MARTIN,1700,14640.0,14754,Villers-sur-Mer,14,14754000AC0401,4.0,1,2.0,Appartement,63.0,3.0,J,jardins,65.0,-0.005079,49.321053
1074400,2020-450486,2020-06-12,1,Vente,220000.0,14.0,AV PRIMAUGUET,0845,44420.0,44211,La Turballe,44,44211000AY0011,14.0,1,1.0,Maison,49.0,3.0,S,sols,504.0,-2.50462,47.343537
1224893,2020-507486,2020-12-14,1,Vente,78000.0,2.0,RUE DU MARAIS,0039,50590.0,50349,Montmartin-sur-Mer,50,50349000AN0084,79,1,1.0,Maison,37.0,3.0,AB,terrains a bâtir,209.0,-1.553586,48.979702
132452,2020-59032,2020-10-20,1,Vente,396600.0,9.0,ALL DU BOUAN-ER,0475,6400.0,6029,Cannes,6,06029000BD0115,6.0,1,1.0,Maison,82.0,4.0,S,sols,202.0,7.006153,43.566255
251704,2020-109916,2020-01-10,1,Vente,265550.0,15.0,CHE DE LA SERIGNANE,7720,13530.0,13110,Trets,13,13110000BX0426,4.0,1,2.0,Appartement,75.0,3.0,J,jardins,235.0,5.673111,43.445331
2183505,2020-926232,2020-07-08,1,Vente,318000.0,28.0,RUE DE BRUNOY,0560,91230.0,91421,Montgeron,91,91421000AI0102,1.0,1,1.0,Maison,75.0,4.0,S,sols,360.0,2.473725,48.700443
283370,2020-124304,2020-08-29,1,Vente,115000.0,11.0,RUE SAINTE MARGUERITE,0820,14160.0,14225,Dives-sur-Mer,14,14225000AM0067,22.0,1,1.0,Maison,36.0,2.0,S,sols,42.0,-0.100957,49.289984
70944,2020-27291,2020-02-26,1,Vente,205000.0,5058.0,L OLIVIER,B040,4350.0,4108,Malijai,4,04108000AC0465,4,1,1.0,Maison,107.0,5.0,S,sols,1208.0,6.028872,44.049345
1783673,2020-753158,2020-06-25,1,Vente,29000.0,5483.0,RTE DE GONFREVILLE CAILLOT,0260,76110.0,76141,Bréauté,76,761410000A0032,7.0,1,1.0,Maison,10.0,1.0,S,sols,600.0,0.40565,49.634147
280867,2020-123107,2020-05-19,1,Vente,110000.0,63.0,AV DE LA BRIGADE PIRON,0350,14640.0,14754,Villers-sur-Mer,14,14754000AM0100,260.0,1,2.0,Appartement,32.0,2.0,AG,terrains d'agrément,63.0,0.005004,49.319062
649569,2020-264861,2020-05-14,1,Vente,120000.0,59.0,RES LES MAISONS DE LA FORET,A045,33680.0,33214,Lacanau,33,33214000BW0027,59.0,1,1.0,Maison,39.0,2.0,S,sols,19.0,-1.184957,45.004304
1807847,2020-764295,2020-07-24,1,Vente,68000.0,185.0,LA MUSSINE,B073,77820.0,77100,Le Châtelet-en-Brie,77,771000000G0654,185.0,1,1.0,Maison,49.0,3.0,S,sols,247.0,2.783736,48.494788
120647,2020-53288,2020-07-31,1,Vente,370000.0,636.0,BD COURTELINE,0300,6250.0,6085,Mougins,6,06085000BP0106,1.0,1,2.0,Appartement,73.0,3.0,S,sols,728.0,6.992332,43.597925
1696432,2020-713490,2020-01-27,1,Vente,155000.0,32.0,RUE FERNAND CRAPEZ,0960,72250.0,72231,Parigné-l'Évêque,72,722310000H0406,5.0,1,2.0,Appartement,82.0,3.0,S,sols,466.0,0.356577,47.937966
1304411,2020-539816,2020-06-08,1,Vente,500000.0,45.0,RUE DE L YRON,0840,54800.0,54273,Jarny,54,54273000AC0295,1.0,1,2.0,Appartement,51.0,3.0,S,sols,561.0,5.864268,49.164642
1759754,2020-741043,2020-06-29,1,Vente,70000.0,188.0,CHE DE LA RENOUILLERE,0380,74140.0,74263,Sciez,74,74263000BY0029,18,1,1.0,Maison,44.0,3.0,S,sols,185.0,6.394191,46.341142
1951355,2020-829351,2020-10-08,1,Vente,110000.0,8.0,RUE PAUL DUCLERCQ,1510,80100.0,80001,Abbeville,80,80001000AH0445,13.0,1,1.0,Maison,92.0,5.0,S,sols,6000.0,1.846332,50.107759
1637891,2020-690990,2020-08-26,1,Vente,461670.0,38.0,RUE DE LA SARRA,0890,69600.0,69149,Oullins,69,69149000AP0071,27.0,1,1.0,Maison,91.0,4.0,S,sols,172.0,4.802009,45.710534
881266,2020-369014,2020-12-29,1,Vente,162640.0,27.0,ALL DU MARAIS,0439,38250.0,38205,Lans-en-Vercors,38,38205000AB0069,16.0,1,1.0,Maison,31.0,1.0,S,sols,686.0,5.58235,45.129112
1782054,2020-752365,2020-03-11,1,Vente,213000.0,13.0,RUE SAINT JUST,1182,76700.0,76341,Harfleur,76,76341000AI0903,1.0,1,2.0,Appartement,24.0,1.0,S,sols,28.0,0.200533,49.506709
1651376,2020-696860,2020-11-30,1,Vente,147600.0,3.0,MTE DE VERDUN,1110,69160.0,69244,Tassin-la-Demi-Lune,69,69244000AR0365,32,1,2.0,Appartement,35.0,1.0,AG,terrains d'agrément,50.0,4.781771,45.763079
283288,2020-124275,2020-09-04,1,Vente,142000.0,41.0,RUE DES BUTTES,0150,14160.0,14225,Dives-sur-Mer,14,14225000AA0025,1.0,1,1.0,Maison,60.0,3.0,S,sols,241.0,-0.106021,49.279844
851027,2020-355332,2020-09-03,1,Vente,13000.0,1342.0,LES PRES LEROY,B050,37250.0,37154,Montbazon,37,371540000B0483,8.0,1,1.0,Maison,30.0,1.0,AG,terrains d'agrément,880.0,0.722818,47.28248
968564,2020-403878,2020-10-20,1,Vente,217000.0,30.0,RUE AMPERE,0060,42240.0,42316,Unieux,42,42316000AN0043,10.0,1,1.0,Maison,150.0,7.0,S,sols,499.0,4.264024,45.410198
761573,2020-315390,2020-03-25,1,Vente,125000.0,4.0,AV DES CANTINIERES,0347,34300.0,34003,Agde,34,34003000OO0155,6.0,1,1.0,Maison,38.0,3.0,AG,terrains d'agrément,25.0,3.516812,43.288656
239928,2020-103906,2020-06-24,1,Vente,402000.0,9310.0,RTE DE BEAUDINARD,0171,13400.0,13005,Aubagne,13,13005000BH0485,1,1,1.0,Maison,91.0,4.0,S,sols,395.0,5.578921,43.302899
658943,2020-269645,2020-10-05,1,Vente,290000.0,34.0,HAM LA CHENAIE,A022,33680.0,33214,Lacanau,33,33214000CH0001,1834.0,1,1.0,Maison,68.0,4.0,S,sols,843.0,-1.09733,44.994284
141081,2020-62730,2020-08-24,1,Vente,445000.0,9.0,CHE DES COLLES,0770,6800.0,6027,Cagnes-sur-Mer,6,06027000AN0066,4.0,1,1.0,Maison,97.0,4.0,S,sols,179.0,7.138063,43.664812
2331160,2020-1002795,2020-11-20,1,Vente,146000.0,125.0,RUE EUGENIE LE GUILLERMIC,0460,94290.0,94077,Villeneuve-le-Roi,94,94077000AE0426,15.0,1,2.0,Appartement,88.0,4.0,S,sols,16.0,2.425978,48.738981
751577,2020-310421,2020-09-01,1,Vente,139360.0,5319.0,MAS AUDRAN,B031,34800.0,34124,Lacoste,34,341240000A0319,2.0,1,1.0,Maison,42.0,2.0,S,sols,20.0,3.40902,43.666748
1089229,2020-457364,2020-07-31,1,Vente,180000.0,102.0,RUE DE LA SOMME,0925,45160.0,45232,Olivet,45,45232000BK0281,102.0,1,1.0,Maison,86.0,4.0,S,sols,606.0,1.904713,47.840221
2328605,2020-1001323,2020-07-23,1,Vente,18000.0,8.0,RUE PIERRE LOTI,1240,94290.0,94077,Villeneuve-le-Roi,94,94077000AR0271,2.0,1,4.0,Local industriel. commercial ou assimilé,27.0,0.0,S,sols,84.0,2.42794,48.728635
1677350,2020-706609,2020-01-13,1,Vente,123000.0,2.0,ALL DES MARAICHERS,4886,71100.0,71076,Chalon-sur-Saône,71,71076000AT0535,32.0,1,2.0,Appartement,69.0,3.0,AG,terrains d'agrément,95.0,4.855564,46.796009
1267073,2020-524780,2020-02-28,4,Vente,41400.0,161.0,LA BASSE DINAIS,B020,53500.0,53245,Saint-Pierre-des-Landes,53,53245000AV0069,8.0,1,1.0,Maison,165.0,5.0,S,sols,452.0,-1.006584,48.273878
95259,2020-40797,2020-12-15,1,Vente,323950.0,996.0,RTE DE LEVENS,0037,6690.0,6147,Tourrette-Levens,6,061470000A0429,1,1,1.0,Maison,90.0,5.0,S,sols,93.0,7.267358,43.807151
645671,2020-262877,2020-01-29,1,Vente,220000.0,71.0,RES CASSIOPEE LES PALOMBES,A008,33680.0,33214,Lacanau,33,33214000BW0025,71.0,1,1.0,Maison,51.0,4.0,S,sols,109.0,-1.183044,45.005546
1555910,2020-652787,2020-06-09,1,Vente,90000.0,9.0,RUE VERLAINE,4585,63100.0,63113,Clermont-Ferrand,63,63113000AL0941,1,1,1.0,Maison,79.0,3.0,S,sols,230.0,3.113027,45.802221
868345,2020-363029,2020-01-27,1,Vente,220000.0,763.0,BD PROFESSEUR LANGEVIN,0124,38190.0,38175,Froges,38,38175000AD0290,4.0,1,2.0,Appartement,76.0,5.0,S,sols,287.0,5.911644,45.260999
347234,2020-148635,2020-02-04,1,Vente,70000.0,27.0,RUE DES ARENES,0170,18000.0,18033,Bourges,18,18033000IO0518,3.0,1,4.0,Local industriel. commercial ou assimilé,102.0,0.0,S,sols,1.0,2.393054,47.084594
133012,2020-59273,2020-02-14,1,Vente,449000.0,144.0,RTE DE DRAGUIGNAN,0378,6530.0,6137,Spéracèdes,6,061370000A2283,1.0,1,1.0,Maison,86.0,4.0,S,sols,1000.0,6.860827,43.638745
595238,2020-243304,2020-01-27,1,Vente,85000.0,17.0,LOT OUSTALOUNNETS DU SOLEIL,A068,30430.0,30164,Méjannes-le-Clap,30,301640000C0613,17.0,1,1.0,Maison,40.0,3.0,S,sols,783.0,4.340153,44.225125
279634,2020-122517,2020-01-21,1,Vente,770000.0,52.0,AV F DE KERGORLAY,0210,14800.0,14220,Deauville,14,14220000AC0512,217.0,1,2.0,Appartement,56.0,3.0,AG,terrains d'agrément,518.0,0.069387,49.351374
1902648,2020-808124,2020-10-26,1,Vente,220000.0,10.0,RUE DE LA LIBERATION,0480,78980.0,78346,Longnes,78,783460000C0336,1.0,1,1.0,Maison,80.0,3.0,AG,terrains d'agrément,28.0,1.588182,48.920925
760443,2020-314813,2020-03-06,1,Vente,195000.0,1.0,AV DE CASSIOPEE,0396,34300.0,34003,Agde,34,34003000KL0029,331.0,1,2.0,Appartement,55.0,2.0,AG,terrains d'agrément,32.0,3.516552,43.295738
1280915,2020-529645,2020-11-02,1,Vente,468000.0,3.0,LA GOUVENIERE,B091,53420.0,53048,Chailland,53,53048000BC0242,1.0,1,1.0,Maison,78.0,4.0,S,sols,525.0,-0.897892,48.217087
768356,2020-318802,2020-11-26,1,Vente,94500.0,1.0,IMP MARIE CELESTE,1441,34300.0,34003,Agde,34,34003000MW0012,52.0,1,2.0,Appartement,25.0,2.0,AG,terrains d'agrément,20.0,3.491526,43.277668
1574374,2020-660142,2020-03-06,1,Vente,157204.0,164.0,AV DE BUROS,0740,64000.0,64445,Pau,64,64445000DY0039,23.0,1,1.0,Maison,86.0,4.0,S,sols,188.0,-0.339674,43.327016
1814589,2020-767249,2020-10-28,1,Vente,194000.0,125.0,RUE BOILEAU,1067,77176.0,77445,Savigny-le-Temple,77,77445000AN0093,1.0,1,2.0,Appartement,101.0,5.0,S,sols,50.0,2.578081,48.600825
269652,2020-118165,2020-08-10,1,Vente,253000.0,16.0,ALL DE LA MONTAGNIERE,2430,13127.0,13117,Vitrolles,13,13117000BV0054,16.0,1,1.0,Maison,83.0,4.0,S,sols,176.0,5.258204,43.441482
1845651,2020-780659,2020-07-24,1,Vente,360000.0,12.0,ALL DUMONT D URVILLE,0127,77200.0,77468,Torcy,77,77468000AE0015,16.0,1,1.0,Maison,122.0,6.0,S,sols,1.0,2.639217,48.848482
573983,2020-234266,2020-10-06,1,Vente,250000.0,26.0,CHE DE BEAU SOLEIL,0022,30620.0,30036,Bernis,30,30036000AO0077,3.0,1,1.0,Maison,97.0,5.0,S,sols,561.0,4.286453,43.77452
139662,2020-62005,2020-05-25,1,Vente,370000.0,154.0,CHE DES ROMARINS,0857,6700.0,6123,Saint-Laurent-du-Var,6,06123000AP0314,7.0,1,1.0,Maison,74.0,4.0,AB,terrains a bâtir,4.0,7.181019,43.664794
868395,2020-363060,2020-01-21,1,Vente,174890.0,51.0,IMP DU TULIPIER,0230,38530.0,38314,Pontcharra,38,38314000AN0430,3.0,1,1.0,Maison,81.0,3.0,S,sols,170.0,6.018635,45.435576
2066670,2020-883196,2020-09-23,1,Vente,65000.0,9010.0,AV DE BAISSE,0170,85160.0,85234,Saint-Jean-de-Monts,85,85234000AW0080,10.0,1,1.0,Maison,28.0,1.0,S,sols,92.0,-2.033026,46.77171
2187265,2020-928263,2020-10-22,1,Vente,243500.0,72.0,RUE DE LA CROIX ROCHOPT,0410,91860.0,91215,Épinay-sous-Sénart,91,91215000AD0004,52.0,1,1.0,Maison,71.0,4.0,S,sols,84.0,2.519985,48.693158
594242,2020-242983,2020-12-28,1,Vente,329000.0,7.0,BD EOLE,1400,30133.0,30011,Les Angles,30,30011000AS0015,9.0,1,1.0,Maison,110.0,5.0,S,sols,172.0,4.771497,43.96432
1846237,2020-780953,2020-08-21,1,Vente,392750.0,44.0,RUE DES LAMBUIS,0540,77400.0,77155,Dampmart,77,77155000AE0087,2.0,1,1.0,Maison,127.0,7.0,S,sols,500.0,2.746723,48.887397
78106,2020-30560,2020-01-31,1,Vente,134000.0,31.0,RUE DE TOURNEFAVE,2132,5000.0,5061,Gap,5,05061000CH0230,1,1,1.0,Maison,82.0,3.0,S,sols,323.0,6.059018,44.551108
1814053,2020-767021,2020-10-07,1,Vente,188000.0,2.0,RUE DES GRISARDES,0965,77140.0,77431,Saint-Pierre-lès-Nemours,77,77431000BA0043,41.0,1,1.0,Maison,91.0,5.0,S,sols,489.0,2.669475,48.276016
1583516,2020-664302,2020-11-30,1,Vente,190000.0,1.0,RUE DE RABAT,3587,64000.0,64445,Pau,64,64445000AZ0322,5.0,1,1.0,Maison,105.0,5.0,S,sols,35.0,-0.330475,43.324291
1954841,2020-830964,2020-06-19,1,Vente,103500.0,40.0,RUE DE LIHONS,0080,80170.0,80524,Méharicourt,80,80524000AB0094,3.0,1,1.0,Maison,91.0,5.0,S,sols,391.0,2.735542,49.801951
1844931,2020-780308,2020-07-27,1,Vente,245000.0,8.0,ALL DES ERABLES,2440,77186.0,77337,Noisiel,77,77337000AH0003,121.0,1,2.0,Appartement,97.0,5.0,S,sols,125.0,2.618459,48.839345
153999,2020-67017,2020-12-23,1,Vente,162000.0,13.0,LOT LOT LES LAVANDES ALLEE 2,A021,7200.0,7296,Saint-Sernin,7,072960000C1467,13.0,1,1.0,Maison,100.0,5.0,S,sols,225.0,4.386894,44.57018
139420,2020-61888,2020-05-14,1,Vente,355000.0,15.0,IMP DES NARCISSES,2270,6800.0,6027,Cagnes-sur-Mer,6,06027000AD0063,1.0,1,1.0,Maison,72.0,4.0,S,sols,567.0,7.150749,43.673558
1581165,2020-663258,2020-09-18,1,Vente,240000.0,16.0,RUE DE LA BIGORRE,0600,64000.0,64445,Pau,64,64445000DV0156,21.0,1,1.0,Maison,82.0,5.0,S,sols,671.0,-0.349818,43.323242
1708412,2020-718939,2020-11-14,1,Vente,230000.0,5.0,IMP DES BLEUETS,0035,72650.0,72065,La Chapelle-Saint-Aubin,72,72065000AC0371,14.0,1,2.0,Appartement,63.0,3.0,S,sols,76.0,0.161148,48.035348
2168234,2020-918948,2020-05-13,1,Vente,204000.0,2.0,RUE DES CHARONNES,0042,89100.0,89239,Malay-le-Grand,89,892390000A0915,128.0,1,1.0,Maison,108.0,7.0,T,terres,791.0,3.339601,48.179661
256425,2020-112338,2020-05-28,1,Vente,233000.0,9001.0,LOT LES HAMEAUX DE GARDANNE,A208,13120.0,13041,Gardanne,13,13041000BI0009,72.0,1,1.0,Maison,58.0,3.0,S,sols,14.0,5.483357,43.45206
1776541,2020-749535,2020-06-25,1,Vente,110000.0,1.0,RUE DES FERMES,0380,76310.0,76552,Sainte-Adresse,76,76552000AB0342,42.0,1,2.0,Appartement,47.0,2.0,S,sols,24.0,0.078956,49.513721
2006193,2020-854639,2020-11-05,1,Vente,980000.0,10.0,SEN DU LEVANT,0444,83230.0,83019,Bormes-les-Mimosas,83,83019000BD0011,159.0,1,1.0,Maison,87.0,4.0,S,sols,410.0,6.354669,43.1052
764973,2020-317115,2020-07-21,1,Vente,279000.0,10.0,AV DES LAVANDIERES,1343,34300.0,34003,Agde,34,34003000KB0003,48.0,1,1.0,Maison,61.0,3.0,AG,terrains d'agrément,28.0,3.525788,43.291429
646004,2020-263040,2020-01-28,1,Vente,320000.0,4.0,RUE DES FLEURS,0203,33320.0,33162,Eysines,33,33162000AS0072,4.0,1,1.0,Maison,68.0,4.0,S,sols,243.0,-0.636895,44.865363
2310534,2020-991635,2020-12-07,1,Vente,345000.0,50.0,RUE ROGER FRANCOIS,8163,94700.0,94046,Maisons-Alfort,94,940460000J0036,84.0,1,2.0,Appartement,50.0,3.0,S,sols,1.0,2.436937,48.810619
1280032,2020-529363,2020-11-05,1,Vente,85000.0,5187.0,LA THEBAUDIERE,C565,53160.0,53053,Champgenéteux,53,530530000B1070,11.0,1,1.0,Maison,110.0,6.0,P,prés,418.0,-0.393332,48.286933
1988481,2020-844503,2020-01-29,1,Vente,393000.0,144.0,DOMERGUE,B027,83500.0,83126,La Seyne-sur-Mer,83,83126000AN1045,2.0,1,1.0,Maison,110.0,5.0,S,sols,1153.0,5.873237,43.097426
2343345,2020-1009018,2020-12-18,1,Vente,530000.0,98.0,RUE JEAN JAURES,4735,94120.0,94033,Fontenay-sous-Bois,94,940330000N0046,2.0,1,1.0,Maison,84.0,4.0,S,sols,206.0,2.469573,48.858254
135247,2020-60056,2020-06-02,1,Vente,489000.0,663.0,CHE DES BASSINS,0025,6530.0,6118,Saint-Cézaire-sur-Siagne,6,061180000A1544,1.0,1,1.0,Maison,127.0,5.0,AG,terrains d'agrément,2500.0,6.790801,43.672149
279731,2020-122558,2020-02-15,1,Vente,95000.0,9021.0,VC RES LE VILLAGE DE LA PLAGE,1930,14640.0,14754,Villers-sur-Mer,14,14754000AE0221,46.0,1,2.0,Appartement,24.0,2.0,AG,terrains d'agrément,17.0,0.010264,49.327866
765522,2020-317383,2020-08-03,1,Vente,215600.0,32.0,RUE DANTON,0650,34300.0,34003,Agde,34,34003000LK0399,2.0,1,1.0,Maison,78.0,3.0,S,sols,224.0,3.467109,43.309839
1819535,2020-769343,2020-12-05,1,Vente,160000.0,19.0,AV DU MONTAVIOT,1090,77140.0,77431,Saint-Pierre-lès-Nemours,77,77431000BA0010,29.0,1,1.0,Maison,93.0,5.0,S,sols,260.0,2.673122,48.274923
2192910,2020-931234,2020-04-03,1,Vente,650000.0,17.0,RUE DU GENERAL LECLERC,0820,91420.0,91432,Morangis,91,914320000M0209,3.0,1,4.0,Local industriel. commercial ou assimilé,54.0,0.0,S,sols,70.0,2.330494,48.707124
2062928,2020-881387,2020-03-13,1,Vente,130000.0,14.0,RUE DE L'ORGATTE,1465,85690.0,85164,Notre-Dame-de-Monts,85,85164000AR0129,36.0,1,1.0,Maison,51.0,3.0,S,sols,179.0,-2.133961,46.837287
1148044,2020-478302,2020-02-21,1,Vente,99000.0,17.0,RUE DAINVILLE,2250,49000.0,49007,Angers,49,49007000CV0147,19.0,1,2.0,Appartement,34.0,1.0,S,sols,151.0,-0.538313,47.458914
2202283,2020-935970,2020-06-05,1,Vente,300000.0,14.0,RUE DES CENDRENNES,0075,91180.0,91552,Saint-Germain-lès-Arpajon,91,91552000AV0078,9.0,1,1.0,Maison,91.0,5.0,S,sols,448.0,2.277324,48.598158
268272,2020-117562,2020-06-16,1,Vente,230000.0,445.0,RONDE DES PIOUTONS,0537,13800.0,13047,Istres,13,13047000AM0017,45.0,1,1.0,Maison,81.0,4.0,S,sols,218.0,4.98921,43.490838
1777999,2020-750170,2020-08-31,1,Vente,211000.0,82.0,RUE DOC CALMETTE,2230,76620.0,76351,Le Havre,76,76351000OH0476,1.0,1,1.0,Maison,114.0,6.0,S,sols,425.0,0.102384,49.511751
1678524,2020-707132,2020-02-27,1,Vente,153000.0,21.0,RUE DE LA CENTAINE,0060,71380.0,71445,Saint-Marcel,71,714450000R0787,33.0,1,2.0,Appartement,71.0,3.0,AG,terrains d'agrément,370.0,4.898136,46.77663
133218,2020-59369,2020-02-06,1,Vente,426000.0,9.0,CHE DES CYPRES,0128,6530.0,6095,Peymeinade,6,06095000AM0006,2.0,1,1.0,Maison,88.0,4.0,AG,terrains d'agrément,691.0,6.885431,43.642529
1592989,2020-668405,2020-09-14,1,Vente,795000.0,125.0,CHE DU PORT,0408,64210.0,64249,Guéthary,64,64249000AH0021,4.0,1,2.0,Appartement,70.0,4.0,S,sols,114.0,-1.610341,43.425709
762320,2020-315764,2020-04-24,1,Vente,135000.0,14.0,IMP GUILLAUME D ORANGE,3967,34500.0,34032,Béziers,34,34032000NO0091,15.0,1,1.0,Maison,90.0,5.0,S,sols,166.0,3.242612,43.337559
2218893,2020-944210,2020-12-30,1,Vente,427000.0,30.0,RUE DU COUVENT,0380,91470.0,91338,Limours,91,91338000AR0051,1.0,1,1.0,Maison,146.0,5.0,S,sols,496.0,2.074049,48.642311
736796,2020-302476,2020-02-06,1,Vente,325000.0,7.0,RUE DES CYCLADES,0225,34470.0,34198,Pérols,34,34198000AB0251,10.0,1,1.0,Maison,101.0,5.0,S,sols,450.0,3.947479,43.565949
1806197,2020-763581,2020-07-09,1,Vente,295000.0,17.0,RUE LAMARTINE,0890,77220.0,77215,Gretz-Armainvilliers,77,772150000D1626,80.0,1,1.0,Maison,118.0,6.0,S,sols,383.0,2.724285,48.742346
260999,2020-114432,2020-08-06,1,Vente,594200.0,276.0,CHE DU PARADOU,6623,13760.0,13091,Saint-Cannat,13,13091000BI0061,1.0,1,1.0,Maison,119.0,5.0,AG,terrains d'agrément,500.0,5.297636,43.612865
1717219,2020-722406,2020-09-16,1,Vente,105000.0,17.0,RUE JEAN COCTEAU,0420,72470.0,72054,Champagné,72,72054000AC0654,28.0,1,1.0,Maison,79.0,5.0,S,sols,380.0,0.331141,48.020631
1638160,2020-691104,2020-09-03,2,Vente,823200.0,62.0,CHE DU TAFFIGNON,1040,69110.0,69202,Sainte-Foy-lès-Lyon,69,69202000AX0004,1.0,1,4.0,Local industriel. commercial ou assimilé,27.0,0.0,J,jardins,833.0,4.777456,45.727394
128684,2020-57218,2020-06-16,1,Vente,854000.0,3.0,TRA DU ROURE DE LA GACHE,4201,6130.0,6069,Grasse,6,06069000DK0078,2.0,1,1.0,Maison,197.0,6.0,S,sols,450.0,6.968963,43.645542
1983201,2020-841741,2020-01-23,1,Vente,440000.0,51.0,IMP DES AGLANIE,0014,83600.0,83061,Fréjus,83,83061000AO0743,2.0,1,1.0,Maison,112.0,4.0,S,sols,565.0,6.765108,43.461611
263991,2020-115910,2020-02-05,1,Vente,337000.0,95.0,ALL D'ALSACE,0981,13127.0,13117,Vitrolles,13,13117000DH0021,431.0,1,1.0,Maison,93.0,6.0,S,sols,344.0,5.239021,43.457009
916471,2020-383177,2020-07-18,1,Vente,155000.0,3.0,RUE DES MURIERS,0278,40480.0,40328,Vieux-Boucau-les-Bains,40,40328000AL0077,7.0,1,2.0,Appartement,45.0,3.0,J,jardins,43.0,-1.401025,43.785225
1898135,2020-806007,2020-03-05,1,Vente,88200.0,64.0,RUE DE PARIS,0520,78550.0,78310,Houdan,78,78310000AB0033,30.0,1,2.0,Appartement,63.0,3.0,AG,terrains d'agrément,52.0,1.599851,48.791806
1836147,2020-776093,2020-01-21,1,Vente,230000.0,8.0,ALL DE VALOIS,0470,77165.0,77437,Saint-Soupplets,77,77437000AB0239,77.0,1,1.0,Maison,101.0,5.0,S,sols,222.0,2.809456,49.03823
1776658,2020-749604,2020-06-10,1,Vente,158950.0,118.0,AV RENE COTY,6863,76600.0,76351,Le Havre,76,76351000JJ0040,35.0,1,2.0,Appartement,70.0,3.0,S,sols,5.0,0.116386,49.497985
1758434,2020-740469,2020-05-27,1,Vente,80000.0,188.0,CHE DE LA RENOUILLERE,0380,74140.0,74263,Sciez,74,74263000BY0029,48,1,1.0,Maison,45.0,3.0,S,sols,162.0,6.394191,46.341142
651245,2020-265683,2020-06-26,1,Vente,175750.0,111.0,AV MARCELIN BERTHELOT,1180,33110.0,33069,Le Bouscat,33,33069000AH0230,2.0,1,1.0,Maison,55.0,4.0,S,sols,90.0,-0.579872,44.864636
262975,2020-115391,2020-12-14,1,Vente,500000.0,100.0,CHE DE CABRIERES HAUT,0050,13410.0,13050,Lambesc,13,13050000CM0234,1.0,1,1.0,Maison,110.0,4.0,S,sols,1000.0,5.279724,43.644103
627199,2020-257564,2020-08-05,1,Vente,211000.0,12.0,RUE DES ACACIAS,0010,31270.0,31588,Villeneuve-Tolosane,31,31588000AH0026,69.0,1,1.0,Maison,76.0,3.0,S,sols,590.0,1.333962,43.531571
2067882,2020-883687,2020-10-13,1,Vente,200000.0,2.0,RES DU PUITS PIGNOLET,A086,85330.0,85163,Noirmoutier-en-l'Île,85,85163000BM0268,2.0,1,1.0,Maison,73.0,4.0,S,sols,263.0,-2.239596,47.004708
893452,2020-373888,2020-09-11,1,Vente,175800.0,24.0,BOURGUIGNONS,B013,39100.0,39078,Brevans,39,39078000ZC0127,111.0,1,1.0,Maison,97.0,5.0,S,sols,85.0,5.513208,47.101005
917969,2020-383800,2020-08-25,1,Vente,57000.0,37.0,RES LOU PIGNADA,A060,40130.0,40065,Capbreton,40,40065000AO0212,2,1,2.0,Appartement,43.0,3.0,J,jardins,119.0,-1.423933,43.646967
1481953,2020-622448,2020-10-13,1,Vente,221500.0,3.0,AV DU BOIS BRANDIN,0100,60580.0,60172,Coye-la-Forêt,60,60172000AM0337,1107.0,1,2.0,Appartement,66.0,3.0,AG,terrains d'agrément,45.0,2.468672,49.138571
1815322,2020-767594,2020-11-03,1,Vente,344100.0,2.0,IMP VIORNET,0585,77390.0,77352,Ozouer-le-Voulgis,77,773520000Z0188,7.0,1,1.0,Maison,93.0,5.0,S,sols,658.0,2.773732,48.665176
1304399,2020-539816,2020-06-08,1,Vente,500000.0,45.0,RUE DE L YRON,0840,54800.0,54273,Jarny,54,54273000AC0295,1.0,1,2.0,Appartement,61.0,3.0,S,sols,561.0,5.864268,49.164642
1648962,2020-695856,2020-09-28,1,Vente,145000.0,70.0,ALL MON VILLAGE,0214,69610.0,69203,Saint-Genis-l'Argentière,69,692030000B0991,17,1,2.0,Appartement,72.0,3.0,AG,terrains d'agrément,216.0,4.493672,45.70922
1612846,2020-678178,2020-06-30,1,Vente,403000.0,43.0,ALL DE LA SCARPE,0660,69140.0,69286,Rillieux-la-Pape,69,69286000BO0157,11,1,1.0,Maison,107.0,6.0,S,sols,262.0,4.889793,45.825996
504448,2020-203348,2020-12-29,1,Vente,180000.0,13.0,LOT LES EGLANTINES,A020,26250.0,26165,Livron-sur-Drôme,26,26165000BI0285,13.0,1,1.0,Maison,115.0,2.0,S,sols,219.0,4.831248,44.771083
1638527,2020-691268,2020-09-01,1,Vente,575000.0,14.0,CHE DE CHAZELLES,0250,69230.0,69204,Saint-Genis-Laval,69,69204000BA0010,5,1,2.0,Appartement,82.0,4.0,S,sols,1222.0,4.803293,45.693825
1738126,2020-731460,2020-04-07,1,Vente,610020.0,14.0,RTE DES LOGIS FLEURIS,3308,74600.0,74010,Annecy,74,74010268AV0041,1.0,1,1.0,Maison,126.0,4.0,S,sols,1223.0,6.109337,45.887967
1844585,2020-780198,2020-07-09,1,Vente,270000.0,5.0,ALL DES AIGRETTES,0005,77183.0,77146,Croissy-Beaubourg,77,77146000AB0020,41.0,1,1.0,Maison,73.0,4.0,S,sols,131.0,2.653579,48.82107
1898297,2020-806059,2020-02-28,1,Vente,500000.0,6.0,RUE DES LONGUES RAIES,1113,78440.0,78267,Gargenville,78,78267000AD0087,1.0,1,4.0,Local industriel. commercial ou assimilé,135.0,0.0,J,jardins,1165.0,1.806035,48.977961
508719,2020-205221,2020-06-24,1,Vente,145000.0,1.0,RUE DE LA GRAVELLE,1290,27200.0,27681,Vernon,27,27681000XC0350,6.0,1,2.0,Appartement,55.0,2.0,AG,terrains d'agrément,10.0,1.489958,49.091908
1810974,2020-765754,2020-09-09,1,Vente,151000.0,44.0,RUE DES GRANDS TAILLIS,0905,77140.0,77431,Saint-Pierre-lès-Nemours,77,77431000BA0043,184.0,1,1.0,Maison,84.0,4.0,S,sols,300.0,2.669475,48.276016
754195,2020-311834,2020-10-15,1,Vente,129500.0,3.0,RUE DE LA REVOLUTION,1800,34200.0,34301,Sète,34,34301000AO0784,9.0,1,2.0,Appartement,35.0,2.0,S,sols,50.0,3.691251,43.404266
968019,2020-403679,2020-10-02,1,Vente,215600.0,8.0,RUE PABLO NERUDA,1415,42700.0,42095,Firminy,42,42095000AX0017,23.0,1,1.0,Maison,89.0,5.0,S,sols,618.0,4.293405,45.378196
760212,2020-314682,2020-02-21,1,Vente,139000.0,2.0,RUE DE L ARAMON,0095,34300.0,34003,Agde,34,34003000KM0058,6.0,1,1.0,Maison,38.0,2.0,S,sols,105.0,3.508818,43.29237
1583824,2020-664444,2020-11-25,1,Vente,151710.0,12.0,IMP THEN GUIRAUT,0859,64140.0,64348,Lons,64,64348000AW0048,2.0,1,1.0,Maison,74.0,4.0,J,jardins,281.0,-0.381498,43.325959
1638090,2020-691068,2020-09-03,1,Vente,412150.0,27.0,PL DE  L EGLISE,0050,69530.0,69148,Orliénas,69,69148000AM0089,8.0,1,1.0,Maison,150.0,4.0,S,sols,174.0,4.71829,45.659016
1852037,2020-783782,2020-10-30,1,Vente,304800.0,16.0,RUE PASTEUR,0500,77360.0,77479,Vaires-sur-Marne,77,77479000AN0300,1,1,2.0,Appartement,76.0,4.0,AG,terrains d'agrément,89.0,2.629407,48.871751
1776741,2020-749658,2020-07-07,1,Vente,52000.0,63.0,PL MAURICE BLARD,5556,76610.0,76351,Le Havre,76,76351539AE0175,1.0,1,4.0,Local industriel. commercial ou assimilé,50.0,0.0,S,sols,109.0,0.161223,49.522271
126580,2020-56214,2020-03-16,1,Vente,435000.0,30.0,CHE DES BASTIDES SAINT ANTOINE,0331,6130.0,6069,Grasse,6,06069000CH0106,5.0,1,1.0,Maison,82.0,3.0,S,sols,729.0,6.9238,43.64347
1647985,2020-695387,2020-08-26,1,Vente,965760.0,8.0,RUE DU VALLON TOREY,1100,69160.0,69244,Tassin-la-Demi-Lune,69,69244000BH0062,4,1,1.0,Maison,144.0,4.0,AG,terrains d'agrément,812.0,4.752548,45.755801
2204230,2020-937048,2020-11-03,1,Vente,213000.0,10.0,ALL DES POTAGERS,1446,91240.0,91570,Saint-Michel-sur-Orge,91,91570000AB0285,2.0,1,1.0,Maison,60.0,1.0,S,sols,234.0,2.3087,48.642357
252956,2020-110552,2020-02-04,1,Vente,328700.0,6.0,CHE DE LA HAUTE BEDOULE,0124,13240.0,13106,Septèmes-les-Vallons,13,13106000AH0195,2.0,1,2.0,Appartement,60.0,3.0,AB,terrains a bâtir,693.0,5.360062,43.406455
125220,2020-55536,2020-01-20,1,Vente,390000.0,30.0,CHE DES BASTIDES SAINT ANTOINE,0331,6130.0,6069,Grasse,6,06069000CH0106,6.0,1,1.0,Maison,89.0,4.0,S,sols,690.0,6.9238,43.64347
321096,2020-137170,2020-04-02,1,Vente,198000.0,1.0,RUE GUY DE MAUPASSANT,3970,17000.0,17300,La Rochelle,17,17300000BR0001,86,1,1.0,Maison,80.0,5.0,S,sols,334.0,-1.189422,46.169637
2329603,2020-1001917,2020-09-10,1,Vente,240000.0,12.0,RUE DU PIGEONNIER,0610,94440.0,94075,Villecresnes,94,94075000AN0290,5.0,1,2.0,Appartement,43.0,2.0,S,sols,194.0,2.529671,48.710555
2218336,2020-943974,2020-11-27,1,Vente,322640.0,6.0,DOM DE VILLEJUST,A100,91140.0,91666,Villejust,91,91666000AB0182,1.0,1,1.0,Maison,92.0,4.0,S,sols,199.0,2.239537,48.683198
1776654,2020-749604,2020-06-10,1,Vente,158950.0,118.0,AV RENE COTY,6863,76600.0,76351,Le Havre,76,76351000JJ0040,35.0,1,2.0,Appartement,70.0,3.0,S,sols,5.0,0.116386,49.497985
2329317,2020-1001748,2020-09-02,1,Vente,360000.0,2.0,AV DU VAL ROGER,0710,94420.0,94059,Le Plessis-Trévise,94,94059000AB0129,2.0,1,1.0,Maison,75.0,4.0,S,sols,200.0,2.558503,48.821576
1088464,2020-456974,2020-07-07,1,Vente,290000.0,11.0,RUE DE LA MARNE,0605,45160.0,45232,Olivet,45,45232000BK0281,11.0,1,1.0,Maison,179.0,7.0,AG,terrains d'agrément,2310.0,1.904713,47.840221
974487,2020-406174,2020-07-03,1,Vente,254000.0,15.0,ALL CLOS DES CHARMES,0635,42160.0,42005,Andrézieux-Bouthéon,42,42005000AT0341,16.0,1,1.0,Maison,95.0,5.0,S,sols,410.0,4.272281,45.541628
758585,2020-313901,2020-12-15,1,Vente,350000.0,9.0,IMP DES AUBEPINES,0009,34540.0,34023,Balaruc-les-Bains,34,34023000AP0331,83.0,1,1.0,Maison,71.0,4.0,S,sols,585.0,3.699989,43.447286
927233,2020-387682,2020-01-31,1,Vente,137000.0,63.0,RUE DU MAL DE LATTRE TASSIGNY,0125,41150.0,41045,Chaumont-sur-Loire,41,41045000AE0209,2,1,1.0,Maison,34.0,2.0,S,sols,86.0,1.184078,47.480156
1783672,2020-753158,2020-06-25,1,Vente,29000.0,5483.0,RTE DE GONFREVILLE CAILLOT,0260,76110.0,76141,Bréauté,76,761410000A0032,7.0,1,1.0,Maison,10.0,1.0,J,jardins,289.0,0.40565,49.634147
1689704,2020-711294,2020-07-28,1,Vente,75000.0,19.0,RUE LAVOISIER,0760,71450.0,71040,Blanzy,71,71040000AB0404,103.0,1,1.0,Maison,89.0,5.0,S,sols,548.0,4.386662,46.706257
1901606,2020-807589,2020-09-14,1,Vente,255000.0,3.0,RUE DES COTELETTES,0630,78930.0,78291,Guerville,78,78291000AD0363,2.0,1,1.0,Maison,81.0,5.0,T,terres,1235.0,1.754897,48.950342
1875857,2020-794592,2020-06-10,1,Vente,646050.0,5.0,RUE DE LA CROIX BLANCHE,0030,78870.0,78043,Bailly,78,78043000AA0129,5.0,1,1.0,Maison,140.0,6.0,S,sols,310.0,2.074707,48.843006
570750,2020-232802,2020-08-12,1,Vente,156500.0,24.0,CHE DE L'HOM,0455,30120.0,30350,Le Vigan,30,303500000A0720,2,1,2.0,Appartement,95.0,5.0,S,sols,537.0,3.608521,43.994424
1812860,2020-766552,2020-10-08,1,Vente,487000.0,3.0,RUE CHARLES MEUNIER,0140,77210.0,77014,Avon,77,770140000A1310,104.0,1,2.0,Appartement,133.0,4.0,AG,terrains d'agrément,79.0,2.722483,48.414312
2004644,2020-853794,2020-10-02,1,Vente,2755710.0,32.0,RTE DES CIGALES,0239,83230.0,83019,Bormes-les-Mimosas,83,83019000BO0032,1.0,1,1.0,Maison,190.0,7.0,AG,terrains d'agrément,2000.0,6.357159,43.097769
768126,2020-318715,2020-11-27,1,Vente,274841.0,2.0,RUE DU PICPOUL,1762,34300.0,34003,Agde,34,34003000KL0036,103.0,1,2.0,Appartement,44.0,3.0,AG,terrains d'agrément,120.0,3.511026,43.292933
1465509,2020-614734,2020-12-11,1,Vente,173000.0,5.0,PAS DES BOCQUILLONS,0077,60600.0,60157,Clermont,60,60157000AI0313,2.0,1,1.0,Maison,90.0,5.0,S,sols,146.0,2.409911,49.371235
138997,2020-61674,2020-02-27,1,Vente,383000.0,7.0,CHE DES GROS BUAUX,1520,6800.0,6027,Cagnes-sur-Mer,6,06027000AV0028,11.0,1,1.0,Maison,78.0,4.0,S,sols,85.0,7.16505,43.671462
277100,2020-121444,2020-09-24,1,Vente,91680.0,18.0,RUE DES TERRES NOIRES,1550,14100.0,14366,Lisieux,14,14366000AD0239,13.0,1,1.0,Maison,55.0,3.0,S,sols,135.0,0.232634,49.14118
1817179,2020-768393,2020-11-24,1,Vente,155000.0,30.0,RUE DE CHERELLES,0200,77140.0,77333,Nemours,77,77333000AE0242,28.0,1,1.0,Maison,97.0,5.0,J,jardins,192.0,2.70483,48.268294
2329551,2020-1001886,2020-09-04,1,Vente,219000.0,5.0,AV DE CHOISY,0370,94190.0,94078,Villeneuve-Saint-Georges,94,94078000AT0015,3.0,1,1.0,Maison,98.0,5.0,S,sols,59.0,2.444186,48.738608
1786330,2020-754588,2020-10-28,1,Vente,50000.0,5484.0,RTE DE GONFREVILLE CAILLOT,0260,76110.0,76141,Bréauté,76,761410000A0032,8.0,1,1.0,Maison,15.0,1.0,J,jardins,283.0,0.40565,49.634147
755788,2020-312491,2020-10-27,1,Vente,235000.0,11.0,IMP DES CAMELIAS,0038,34540.0,34023,Balaruc-les-Bains,34,34023000AP0331,63.0,1,1.0,Maison,66.0,4.0,S,sols,141.0,3.699989,43.447286
622058,2020-255200,2020-01-20,1,Vente,198800.0,34.0,RUE ALBERT CAMUS,0160,31270.0,31588,Villeneuve-Tolosane,31,31588000AL0024,14.0,1,1.0,Maison,72.0,4.0,S,sols,216.0,1.342077,43.526977
1841554,2020-778735,2020-06-08,1,Vente,278000.0,22.0,RUE DANIELLE CASANOVA,0360,77290.0,77294,Mitry-Mory,77,77294000AN0018,3.0,1,1.0,Maison,80.0,3.0,S,sols,273.0,2.629175,48.973953
2145042,2020-911255,2020-05-22,1,Vente,50000.0,65.0,RUE DU DAVAL,0110,88310.0,88116,Cornimont,88,88116000AB0142,102,1,2.0,Appartement,70.0,3.0,S,sols,3.0,6.827846,47.960761
654062,2020-267013,2020-08-20,1,Vente,313900.0,9012.0,HAM DE BREDERA,A037,33480.0,33022,Avensan,33,330220000D0515,12.0,1,1.0,Maison,89.0,4.0,AB,terrains a bâtir,4845.0,-0.778169,44.957809
